FIRE_NAME,FIRE_YEAR,SOURCE_REPORTING_UNIT_NAME,STAT_CAUSE_DESCR,FIRE_SIZE,LATITUDE,LONGITUDE,STATE
POWER,2004,"Eldorado National Forest","Equipment Use",16823.0,38.52333333,-120.21166667,CA
FREDS,2004,"Eldorado National Forest","Equipment Use",7700.0,38.78,-120.26,CA
THREE,2005,"Tonto National Forest",Lightning,16100.0,33.72333333,-111.275,AZ
NINE,2005,"Sequoia National Forest",Miscellaneous,1149.0,35.68805556,-118.43833333,CA
OAK,2005,"Tonto National Forest",Lightning,1300.0,33.93361111,-111.37972222,AZ
"TW0 BAR",2005,"Tonto National Forest",Lightning,2093.0,33.55111111,-111.10666667,AZ
"SAWMILL GULCH",2005,"Custer National Forest",Lightning,1199.0,45.30833333,-106.35833333,MT
FORK,2005,"Gila National Forest",Lightning,11936.0,33.61333333,-108.55888889,NM
"ERICKSON SPRING",2005,"Custer National Forest",Lightning,2700.0,45.44833333,-105.95527778,MT
MASON,2005,"Pike San Isabel National Forest",Lightning,11357.0,38.16972222,-105.03805556,CO
"BURNT CABIN",2005,"Umatilla National Forest",Miscellaneous,1977.0,45.84083333,-118.06777778,OR
RICCO,2005,"Black Hills National Forest",Lightning,3959.0,44.19361111,-103.39388889,SD
CEMENT,2005,"Black Hills National Forest",Lightning,3025.0,44.37194444,-104.17416667,WY
"HALE GULCH",2005,"Salmon-Challis National Forest",Lightning,2643.0,45.38805556,-114.21,ID
"SNAKE RIDGE FIRE",2005,"Apache-Sitgreaves National Forest",Lightning,1900.0,33.16972222,-109.19055556,AZ
"STODDARD CREEK POINT",2005,"Salmon-Challis National Forest",Lightning,4004.0,45.24861111,-114.72277778,ID
"BIG SANDS",2005,"Clearwater National Forest",Lightning,2398.0,46.3425,-114.58777778,ID
"ALPINE LAKE",2005,"Superior National Forest",Lightning,1335.0,48.14,-90.96777778,MN
"RUNNING LAKE",2005,"Nezperce National Forest",Lightning,7404.0,45.92333333,-115.025,ID
"CEDAR BAREFOOT",2005,"Bitterroot National Forest",Lightning,1777.5,45.88083333,-114.63972222,ID
"LODGEPOLE HUMP",2005,"Bitterroot National Forest",Lightning,1981.5,46.69611111,-114.90138889,ID
"MILL CREEK",2005,"Dixie National Forest",Lightning,7892.0,37.17388889,-113.53833333,UT
BOXCAR,2005,"Nezperce National Forest",Lightning,1818.0,45.92777778,-114.95833333,ID
"BEAVER JACK",2005,"Bitterroot National Forest",Lightning,7244.4,45.73027778,-114.70666667,ID
BURNT,2005,"Nezperce National Forest",Lightning,4530.0,45.7,-115.01,ID
"CHINA TEN",2005,"Nezperce National Forest",Lightning,1859.0,45.93222222,-115.78583333,ID
HARDING,2005,"Tahoe National Forest",Miscellaneous,2270.0,39.61222222,-120.35166667,CA
"KELLY POINT",2005,"Flathead National Forest",Campfire,3875.0,47.73305556,-113.37555556,MT
SCHOOL,2005,"Umatilla National Forest",Miscellaneous,52000.0,46.23444444,-117.68055556,WA
HASTINGS,2005,"Humboldt National Forest",Lightning,1180.3,40.28638889,-115.61611111,NV
"ELK CREEK",2005,"Nezperce National Forest",Lightning,1335.0,45.97472222,-114.88583333,ID
PENNY,2005,"Nezperce National Forest",Lightning,1067.0,46.02055556,-114.86555556,ID
"NINE SHOT",2005,"Salmon-Challis National Forest",Lightning,20400.0,45.09055556,-114.70361111,ID
"REYNOLDS LAKE",2005,"Salmon-Challis National Forest",Lightning,4010.0,45.5325,-114.58722222,ID
MUSTANG,2005,"Salmon-Challis National Forest",Lightning,1040.0,45.42527778,-114.61638889,ID
"BLACK CANYON FACE",2005,"Clearwater National Forest",Lightning,2000.0,46.80027778,-115.21,ID
"CAP KNOB",2005,"Daniel Boone National Forest",Arson,1555.0,36.61222222,-84.24305556,KY
"NORTH ROAD",2005,"Humboldt National Forest","Debris Burning",12855.0,41.99555556,-117.63888889,NV
GREGORY,2005,"Boise National Forest","Equipment Use",1132.0,43.82055556,-115.89555556,ID
"RIO BLANCO WFU",2005,"San Juan National Forest",Lightning,1182.0,37.15583333,-106.88444444,CO
WOOLEY,2005,"Klamath National Forest",Miscellaneous,3225.0,41.49972222,-123.27638889,CA
"LOWER BURN CREEK",2005,"Bitterroot National Forest",Lightning,1086.0,45.59916667,-114.6825,ID
JOHNSON,2005,"Gila National Forest",Lightning,11611.0,34.04666667,-108.87944444,NM
"BEAR CREEK WFU",2005,"Payette National Forest",Lightning,5722.0,45.45583333,-114.9775,ID
"STRIPE CREEK",2005,"Bitterroot National Forest",Lightning,4278.7,45.515,-114.76194444,ID
MUDERSBACH,2005,"Kaibab National Forest",Lightning,7260.0,35.86611111,-111.92527778,AZ
NORTH,2005,"Kaibab National Forest",Lightning,1315.0,35.90416667,-111.9675,AZ
FLORIDA,2005,"Coronado National Forest",Lightning,23183.0,31.42277778,-111.33,AZ
"VALLEY ROAD",2005,"Sawtooth National Forest","Debris Burning",40483.0,43.99277778,-114.78611111,ID
"BURNT STRIP MOUNTAIN",2005,"Bitterroot National Forest",Lightning,8580.0,45.70416667,-114.99861111,ID
CRAG,2005,"Sequoia National Forest",Lightning,1185.0,35.09333333,-118.20555556,CA
BULL,2005,"Gila National Forest",Lightning,77000.0,33.39472222,-108.28972222,NM
"SIGNAL ROCK",2005,"Bitterroot National Forest",Lightning,13327.0,46.14833333,-113.79583333,MT
"CB RANCH MUTUAL AID",2005,"Bitterroot National Forest",Lightning,1708.0,46.04333333,-114.15194444,MT
"ROCK IN",2005,"Bitterroot National Forest",Lightning,6869.0,46.05361111,-114.40472222,MT
MOUNTAIN,2005,"Gila National Forest",Lightning,1400.0,33.65166667,-108.70416667,NM
"ST. CLAIRE",2005,"Tonto National Forest",Miscellaneous,1920.0,33.92027778,-111.72805556,AZ
PEPPIN,2004,"Lincoln National Forest",Lightning,64488.0,33.60138889,-105.43333333,NM
PROSPECT,2005,"Lolo National Forest",Lightning,3200.0,47.05,-115.01138889,MT
"GILBERTS CREEK",2005,"Daniel Boone National Forest",Arson,2537.0,37.10833333,-84.54166667,KY
BEETLE,2005,"National Forests in Florida",Arson,4384.92,30.21666667,-84.98333333,FL
"SHEEP CREEK WFU",2005,"Ashley National Forest",Lightning,3322.0,40.86444444,-109.92833333,UT
"STARVATION WFU",2005,"Payette National Forest",Lightning,1349.0,45.35166667,-114.975,ID
"BIG DRY CANYON WFU",2005,"Caribou-Targhee National Forest",Lightning,2098.0,43.45166667,-111.14944444,ID
"JOE CREEK WFU",2005,"Payette National Forest",Lightning,13866.0,45.23055556,-115.32055556,ID
"WEST FORK WFU",2005,"Payette National Forest",Lightning,9933.0,45.23638889,-115.32055556,ID
"WOLF FANG WFU",2005,"Payette National Forest",Lightning,3933.0,45.21555556,-115.43361111,ID
"MISSOURI RIDGE WFU",2005,"Payette National Forest",Lightning,6775.0,45.00055556,-115.3875,ID
BUTTE,2005,"Prescott National Forest",Lightning,7962.0,34.40638889,-111.97972222,AZ
"PINE CANYON",2005,"Carson National Forest",Miscellaneous,3922.0,36.34194444,-106.28972222,NM
BLOSSOM,2005,"Siskiyou National Forest",Lightning,14772.0,42.72361111,-123.93833333,OR
SYCAMORE,2005,"Prescott National Forest",Lightning,2000.0,34.68277778,-112.85416667,AZ
"MULE PEAK",2005,"Wallowa-Whitman National Forest",Lightning,1400.0,45.10805556,-117.55972222,OR
FLY,2005,"Wallowa-Whitman National Forest",Lightning,1066.0,45.10277778,-118.51083333,OR
"FALLS CREEK",2005,"Salmon-Challis National Forest",Lightning,1445.0,44.62222222,-113.74583333,ID
PATTERSON,2005,"Salmon-Challis National Forest",Miscellaneous,1185.0,44.5525,-113.68305556,ID
"DIRTY FACE",2005,"Okanogan-Wenatchee National Forest",Miscellaneous,1150.0,47.83722222,-120.80527778,WA
"SPRING CREEK",2005,"Wallowa-Whitman National Forest","Equipment Use",1156.0,45.33472222,-118.33416667,OR
"OK STATE LINE",2005,"Cibola National Forest",Smoking,6080.0,36.56972222,-103.0,OK
"HAAS RIDGE",2005,"Wallowa-Whitman National Forest",Lightning,2296.0,45.68722222,-116.74972222,OR
"016 CROWELL",2005,"Kisatchie National Forest",Miscellaneous,1100.0,31.39638889,-93.03083333,LA
"TURNER CREEK",2005,"Wallowa-Whitman National Forest","Debris Burning",1419.0,45.42083333,-116.78638889,OR
TARKIO,2005,"Lolo National Forest",Miscellaneous,9082.0,47.01888889,-114.68027778,MT
"WEST MOUNTAIN",2005,"Lolo National Forest",Miscellaneous,1642.0,47.01944444,-114.5375,MT
ZERO,2005,"National Forests in Mississippi",Miscellaneous,1027.0,31.13333333,-89.14166667,MS
"WHITE DOG",2005,"National Forests in Mississippi",Miscellaneous,5300.0,31.13833333,-89.1125,MS
EDGE,2005,"Tonto National Forest",Lightning,72000.0,33.66666667,-111.46666667,AZ
FOUR,2005,"Tonto National Forest",Lightning,3000.0,33.675,-111.35,AZ
MILES,2005,"Tonto National Forest",Lightning,1056.0,33.42722222,-111.07555556,AZ
"NO MANS LAND",2006,"Ouachita National Forest",Lightning,8294.0,34.44166667,-93.84444444,AR
WINDY,2006,"Cibola National Forest",Miscellaneous,6343.0,36.66083333,-102.98416667,OK
I-40,2006,"Cibola National Forest",Miscellaneous,427696.0,35.21666667,-100.93333333,TX
"SQUARE TOP",2006,"Cibola National Forest","Equipment Use",1000.0,35.56861111,-99.5675,OK
STEELER,2006,"Pike San Isabel National Forest and Grasslands",Arson,2380.0,37.07388889,-101.70972222,KS
FLATSIDE,2006,"Ouachita National Forest",Lightning,5091.0,34.83583333,-93.04305556,AR
TAYLOR,2006,"Gila National Forest",Lightning,1830.0,33.33611111,-108.07444444,NM
BRUSHY,2006,"Gila National Forest",Lightning,1701.0,33.31777778,-108.91861111,NM
HACKBERRY,2006,"Tonto National Forest",Lightning,2031.0,33.92388889,-111.23583333,AZ
SAND,2006,"Apache-Sitgreaves National Forest",Miscellaneous,1248.0,34.55638889,-110.88333333,AZ
GOODALE,2006,"Inyo National Forest",Lightning,3747.1,36.97638889,-118.26444444,CA
"CHIPPEAN RIDGE",2006,"Manti-Lasal National Forest",Lightning,2500.0,37.8,-109.63583333,UT
JACKASS,2006,"Humboldt-Toiyabe National Forest",Lightning,6255.0,38.55166667,-119.35944444,CA
MARTINEZ,2006,"Gila National Forest",Lightning,3162.0,33.58333333,-108.86666667,NM
"MARTINEZ II",2006,"Gila National Forest",Lightning,6618.0,33.59722222,-108.88888889,NM
WILSON,2006,"Gila National Forest",Lightning,5216.0,33.85722222,-108.22333333,NM
TIGER,2006,"Prescott National Forest",Lightning,5143.0,34.17916667,-112.22888889,AZ
"BEAR PAW",2006,"Santa Fe National Forest",Miscellaneous,3075.0,36.22361111,-106.8925,NM
277,2006,"National Forests in Florida",Lightning,3259.0,30.36222222,-82.38694444,FL
TECOLATE,2006,"Pike San Isabel National Forest","Debris Burning",1500.0,37.21388889,-103.23166667,CO
RUSH,2006,"Klamath National Forest",Lightning,4850.0,41.10333333,-123.03666667,CA
"WEST WFU",2006,"Kaibab National Forest",Lightning,1925.0,35.90888889,-111.99694444,AZ
"COLE CREEK",2006,"Custer National Forest",Lightning,1000.0,45.58833333,-108.95972222,MT
"SHANE RIDGE",2006,"Custer National Forest",Lightning,1000.0,45.49194444,-109.08416667,MT
SAUNDERS,2006,"Custer National Forest","Debris Burning",3000.0,45.6125,-109.48333333,MT
"LION CREEK",2006,"Manti-Lasal National Forest",Miscellaneous,1499.0,38.40138889,-109.0225,CO
RIDGE,2006,"Los Padres National Forest",Lightning,2418.0,34.90083333,-119.27944444,CA
BEAVERHEAD,2006,"Apache-Sitgreaves National Forest",Miscellaneous,1497.0,33.67472222,-109.25833333,AZ
CORNFIELD,2006,"Prescott National Forest","Equipment Use",1143.0,35.59833333,-112.71333333,AZ
"MOUNTAIN MEADOW",2006,"Salmon-Challis National Forest",Lightning,2329.0,44.5075,-115.36833333,ID
"SHARPS RIDGE",2006,"Umatilla National Forest",Lightning,5394.9,44.80277778,-118.74027778,OR
BEAR,2006,"Gila National Forest",Campfire,55307.0,33.41138889,-108.63138889,NM
WARM,2006,"Kaibab National Forest",Lightning,58630.0,36.65972222,-112.19,AZ
HOTLUM,2006,"Shasta-Trinity National Forest","Debris Burning",2815.0,41.46777778,-122.33333333,CA
HIGH,2006,"Modoc National Forest",Lightning,1049.0,41.46916667,-121.33472222,CA
POTATO,2006,"Apache-Sitgreaves National Forest",Lightning,6262.0,34.49416667,-110.74388889,AZ
"BLACK HORSE CREEK",2006,"Dakota Prairie Grasslands",Lightning,7829.4,45.59583333,-101.99444444,SD
"BALLS CANYON",2006,"Humboldt-Toiyabe National Forest",Lightning,1805.0,39.66194444,-120.08277778,CA
"VERDI (STONE RIDGE)",2006,"Humboldt-Toiyabe National Forest",Miscellaneous,6052.0,39.535,-119.96694444,NV
"TROY PEAK",2006,"Humboldt National Forest",Lightning,1183.0,38.24166667,-115.525,NV
SIERRA,2006,"Cleveland National Forest",Miscellaneous,10584.0,33.85194444,-117.64972222,CA
"BIG CREEK",2006,"Gallatin National Forest",Lightning,14000.0,45.31583333,-110.86861111,MT
DERBY,2006,"Gallatin National Forest",Lightning,207115.0,45.53611111,-109.93472222,MT
"PASSAGE FALLS",2006,"Gallatin National Forest",Lightning,6620.0,45.23472222,-110.47361111,MT
JUNGLE,2006,"Gallatin National Forest",Lightning,25828.0,45.43694444,-110.39888889,MT
"0564 - MAXWELL FIRE",2006,"Ochoco National Forest",Lightning,7145.0,44.49083333,-120.1975,OR
"ROBERTS TRACT",2006,"Nebraska National Forest",Lightning,10079.0,42.68333333,-103.145,NE
"SPOTTED TAIL #3",2006,"Nebraska National Forest",Lightning,17899.0,42.69111111,-102.96055556,NE
"WATT DRAW",2006,"Custer National Forest",Lightning,17552.0,45.49111111,-105.97138889,MT
"SNOW CANYON",2006,"Humboldt National Forest",Lightning,22233.6,41.42361111,-116.07388889,NV
RB-78,2006,"Cibola National Forest",Lightning,1600.0,36.26944444,-102.41305556,TX
MILKSHAKE,2006,"Cibola National Forest",Lightning,3500.0,36.305,-102.6325,TX
POTATO,2006,"Salmon-Challis National Forest",Lightning,18236.0,44.32472222,-114.83944444,ID
BOUNDARY,2006,"Salmon-Challis National Forest",Lightning,11005.0,44.49861111,-115.28916667,ID
"HOLLAND PEAK",2006,"Flathead National Forest",Lightning,1840.0,47.52,-113.59861111,MT
TRAILHEAD,2006,"Sawtooth National Forest",Miscellaneous,4252.0,44.14972222,-115.14916667,ID
"TANGO POINT",2006,"Flathead National Forest",Lightning,1467.0,47.53555556,-113.54972222,MT
"JENNY CREEK",2006,"Flathead National Forest",Lightning,1020.0,47.30361111,-113.28055556,MT
"SUN DOG",2006,"Flathead National Forest",Lightning,1560.0,48.68138889,-114.44166667,MT
BLUEGRASS,2006,"Mt. Hood National Forest",Lightning,1850.0,45.36666667,-121.59944444,OR
HORSE,2006,"Cleveland National Forest",Campfire,16677.0,32.75444444,-116.66916667,CA
SHERWOOD,2006,"Humboldt National Forest",Lightning,7378.0,38.255,-115.40166667,NV
"DEEP CREEK",2006,"Manti-Lasal National Forest",Lightning,1484.0,39.47388889,-111.85361111,UT
"CUB (WFU)",2006,"Salmon-Challis National Forest",Lightning,3908.0,44.85722222,-114.77333333,ID
LIGHTNING,2006,"Nezperce National Forest",Lightning,1950.0,45.44722222,-116.25944444,ID
"CHEYENNE RIVER",2006,"Medicine Bow-Routt National Forest",Lightning,2000.0,43.31027778,-105.34888889,WY
BALD,2006,"Los Padres National Forest",Lightning,1250.0,34.925,-119.95972222,CA
CUMMINGS,2006,"Medicine Bow-Routt National Forest",Lightning,4242.0,43.81333333,-104.42444444,WY
"NORTH ELK",2006,"Salmon-Challis National Forest",Lightning,6099.0,44.5275,-115.45777778,ID
"COLUMBIA COMPLEX",2006,"Umatilla National Forest",Lightning,109259.0,46.14305556,-118.04416667,WA
"EAST ROARING",2006,"Boise National Forest",Lightning,3185.0,43.66833333,-115.42972222,ID
SAGE,2006,"Modoc National Forest",Lightning,4871.0,41.68583333,-120.51833333,CA
"RED MOUNTAIN",2006,"Boise National Forest",Campfire,35482.0,44.24333333,-115.38638889,ID
"EAST LANGDON",2006,"Bitterroot National Forest",Lightning,1893.0,45.61888889,-114.71916667,ID
"BARE PEAK",2006,"Bitterroot National Forest",Lightning,1370.0,45.83472222,-114.4175,MT
SOMES,2006,"Six Rivers National Forest",Lightning,15710.0,41.315,-123.49666667,CA
"MOUNT AURA",2006,"Bitterroot National Forest",Lightning,1317.0,45.85111111,-114.80222222,ID
"TROUT CREEK",2006,"Payette National Forest",Lightning,4525.0,45.50694444,-115.30527778,ID
BURNT,2006,"Boise National Forest",Lightning,2100.0,44.70027778,-115.48361111,ID
"JIM CREEK",2006,"Wallowa-Whitman National Forest",Lightning,12946.0,45.9475,-116.87888889,OR
HARVEY,2006,"Mendocino National Forest",Lightning,1247.0,40.05888889,-122.90805556,CA
PINNACLES,2006,"San Bernardino National Forest",Arson,2750.0,34.28444444,-117.2125,CA
SUMMIT,2006,"Boise National Forest",Lightning,2500.0,44.64583333,-115.57555556,ID
RATTLESNAKE,2006,"Boise National Forest",Lightning,43600.0,44.30138889,-115.78722222,ID
RALSTON,2006,"Tahoe National Forest",Miscellaneous,8422.0,39.01666667,-120.7025,CA
HUNTER,2006,"Mendocino National Forest",Lightning,16296.0,39.66055556,-122.86166667,CA
"SLIDE CREEK",2006,"Clearwater National Forest",Lightning,1430.0,46.7175,-115.1875,ID
SLED,2006,"Clearwater National Forest",Lightning,1700.0,46.67,-115.03222222,ID
BASSETTS,2006,"Tahoe National Forest",Miscellaneous,2114.0,39.61694444,-120.60166667,CA
HANCOCK,2006,"Six Rivers National Forest",Lightning,10770.0,41.44888889,-123.2925,CA
PUZZLE,2006,"Willamette National Forest",Miscellaneous,6340.0,44.58972222,-121.84472222,OR
TITUS,2006,"Klamath National Forest",Lightning,5792.0,41.60277778,-123.37694444,CA
"DUNCE WFU",2006,"Payette National Forest",Lightning,7898.0,45.125,-114.78305556,ID
DAY,2006,"Los Padres National Forest","Debris Burning",162702.0,34.63222222,-118.76972222,CA
"HORSE HEAVEN",2006,"Wallowa-Whitman National Forest",Lightning,2298.0,45.25833333,-116.5575,ID
PERKINS,2006,"Los Padres National Forest",Miscellaneous,14988.0,34.94361111,-119.68722222,CA
KINGSLEY,2006,"Mendocino National Forest",Lightning,6854.0,40.03777778,-122.94138889,CA
BOULDER,2006,"Plumas National Forest",Lightning,2920.0,40.21888889,-120.60722222,CA
PIGEON,2006,"Shasta-Trinity National Forest",Miscellaneous,35101.0,40.75111111,-123.15083333,CA
"TRIPOD COMPLEX",2006,"Okanogan-Wenatchee National Forest",Lightning,113011.0,48.50333333,-120.04444444,WA
"VAN PEAK",2006,"Okanogan-Wenatchee National Forest",Lightning,1813.0,48.93972222,-120.27972222,WA
"SPUR PEAK",2006,"Okanogan-Wenatchee National Forest",Lightning,62173.0,48.65805556,-120.02888889,WA
"CEDAR CREEK",2006,"Okanogan-Wenatchee National Forest",Lightning,1661.0,48.52416667,-120.58055556,WA
TATOOSH,2006,"Okanogan-Wenatchee National Forest",Lightning,51671.0,48.89611111,-120.56111111,WA
"CLEAR CREEK",2006,"Wallowa-Whitman National Forest",Lightning,11615.0,45.07333333,-117.15277778,OR
BOWEN,2006,"Caribou-Targhee National Forest",Lightning,19482.0,42.13861111,-112.69722222,ID
"TWIN BUTTE",2006,"Nezperce National Forest",Lightning,1190.0,46.06416667,-114.68722222,ID
"TAMARACK WFU",2006,"Payette National Forest",Lightning,2360.0,44.97916667,-115.37277778,ID
"SIXTY TWO RIDGE",2006,"Nezperce National Forest",Lightning,1405.0,46.13833333,-115.07638889,ID
"BISHOP CREEK",2006,"Payette National Forest",Lightning,2650.0,44.94333333,-115.38055556,ID
"LICK CREEK WFU",2006,"Payette National Forest",Lightning,1038.0,45.07972222,-115.79777778,ID
BRUSHY,2006,"Nezperce National Forest",Lightning,2772.0,45.97638889,-114.64972222,ID
KRASSEL,2006,"Payette National Forest",Lightning,1100.0,44.95027778,-115.71888889,ID
"SHEEP CREEK WFU",2006,"Payette National Forest",Lightning,3300.0,45.02972222,-115.60305556,ID
"PHOEBE 2",2006,"Payette National Forest",Lightning,1950.0,44.94194444,-115.64666667,ID
RAINBOW,2006,"Payette National Forest",Lightning,3383.0,44.92027778,-115.83666667,ID
"TWIN LAKES",2006,"Payette National Forest",Lightning,1539.0,45.05611111,-115.49972222,ID
"VAN METER",2006,"Payette National Forest",Lightning,3300.0,44.97444444,-115.50166667,ID
"TAILHOLT CREEK",2006,"Payette National Forest",Lightning,4500.0,45.05916667,-115.68888889,ID
"NANNY CREEK",2006,"Lewis and Clark National Forest",Lightning,2362.0,48.01694444,-112.83777778,MT
"CIGARETTE ROCK",2006,"Lewis and Clark National Forest",Lightning,2271.0,47.38861111,-112.86972222,MT
COUGAR,2006,"Payette National Forest",Lightning,28431.0,44.8375,-115.75333333,ID
MEADOW,2006,"Nezperce National Forest",Lightning,7200.0,45.73722222,-115.18944444,ID
CUDDY,2006,"Payette National Forest",Lightning,1202.0,44.85916667,-116.76305556,ID
"GREEN ACRES",2006,"Nezperce National Forest",Lightning,6700.0,45.34861111,-116.49527778,ID
"CLARKS CANYON",2006,"Beaverhead-Deerlodge National Forest","Equipment Use",15387.0,45.01111111,-112.79305556,MT
"BLACK BUTTE",2006,"Nezperce National Forest",Lightning,33000.0,45.47027778,-115.88611111,ID
"0668 - LAKE GEORGE",2006,"Deschutes National Forest",Lightning,5550.0,44.3075,-121.81388889,OR
"0570  BLACK CRATER",2006,"Deschutes National Forest",Lightning,9400.0,44.26083333,-121.73611111,OR
"QUARRY - GP",2006,"George Washington-Jefferson","Debris Burning",1140.0,37.43194444,-79.815,VA
"FAMINE LAKE",2006,"Superior National Forest",Lightning,4104.0,47.96444444,-90.71722222,MN
"ULM PEAK",2006,"Idaho Panhandle National Forest",Lightning,4980.0,47.89166667,-115.98416667,ID
"BEAR GULCH II",2006,"Olympic National Forest",Miscellaneous,1100.0,47.50361111,-123.29638889,WA
"CAVITY LAKE",2006,"Superior National Forest",Lightning,31830.0,48.09305556,-90.99527778,MN
"MOUNT CARMEL",2006,"Pike San Isabel National Forest and Grasslands","Equipment Use",4000.0,36.99861111,-102.32666667,OK
REDEYE,2006,"Superior National Forest",Lightning,1792.0,47.97611111,-90.55916667,MN
TURTLE,2006,"Superior National Forest",Lightning,2085.0,47.85111111,-91.53666667,MN
RABBIT,2006,"Clearwater National Forest",Lightning,2200.0,46.40444444,-114.63694444,ID
"LINDSEY BAY",2006,"National Forests in Florida",Lightning,1073.0,30.13583333,-84.96888889,FL
JUNIPER,2006,"National Forests in Florida",Miscellaneous,4014.0,29.21666667,-81.69722222,FL
SAUSE,2006,"National Forests in Mississippi",Lightning,1824.0,30.53944444,-88.96611111,MS
SKATE,2006,"Gila National Forest",Lightning,12582.0,32.95611111,-108.13027778,NM
"BLACK BIRD MINE WFU",2006,"Fishlake National Forest",Lightning,1463.0,38.44805556,-112.13472222,UT
"MONTEZUMA 1",2006,"Coronado National Forest",Arson,4191.0,31.33861111,-110.42611111,AZ
WILLOW,2006,"Coronado National Forest",Miscellaneous,1806.0,31.44527778,-110.655,AZ
103,2006,"Coronado National Forest",Campfire,1634.0,31.35111111,-110.31333333,AZ
"HUGHES LAKE FIRE",2006,"Huron-Manistee National Forest","Debris Burning",5818.0,44.51,-84.19,MI
PLOWBOY,2006,"Idaho Panhandle National Forest",Lightning,1234.0,48.77916667,-116.9525,ID
"HUGHES EAST",2006,"Idaho Panhandle National Forest",Lightning,2959.0,48.96166667,-116.98361111,ID
"DOG VALLEY",2006,"Fishlake National Forest",Lightning,28661.3,38.67555556,-112.52527778,UT
"SOUTH WATER HOLLOW",2006,"Fishlake National Forest",Lightning,1424.0,38.87388889,-111.3975,UT
"SUNSET CANYON",2006,"Fishlake National Forest",Lightning,1096.0,38.83722222,-112.3175,UT
BRINS,2006,"Coconino National Forest",Smoking,4317.0,34.89861111,-111.76861111,AZ
ISABELLE,2006,"Medicine Bow-Routt National Forest",Lightning,1190.61,41.12972222,-106.09805556,WY
"DEVILS DEN",2006,"Fishlake National Forest",Lightning,14153.7,39.35388889,-112.26833333,UT
GASH,2006,"Bitterroot National Forest",Arson,8800.0,46.395,-114.25388889,MT
ESPERANZA,2006,"San Bernardino National Forest",Arson,40200.0,33.89972222,-116.76611111,CA
"KILN (BAYOU BACON)",2006,"National Forests in Mississippi",Arson,3708.0,30.41972222,-89.49694444,MS
"SULPHUR MOUNTAIN",2006,"Ouachita National Forest",Lightning,3739.0,34.35666667,-93.78666667,AR
ELKHORN,2006,"Salmon-Challis National Forest",Lightning,1002.0,45.34666667,-114.57388889,ID
MAGGIE,2006,"Sequoia National Forest",Lightning,2097.0,36.26333333,-118.61472222,CA
"SHELDON PEAK",2006,"Salmon-Challis National Forest",Lightning,2384.0,44.70111111,-114.55361111,ID
TAMARACK,2006,"Sequoia National Forest",Lightning,4654.0,36.32055556,-118.40305556,CA
"BRODER WFU",2006,"Sequoia National Forest",Lightning,1220.0,36.14194444,-118.18555556,CA
"BECK WFU",2006,"Sequoia National Forest",Lightning,2270.0,36.16666667,-118.16888889,CA
TINPAN,2006,"Okanogan-Wenatchee National Forest",Lightning,9252.0,48.16416667,-120.72583333,WA
"THORN CREEK",2006,"Malheur National Forest",Lightning,13536.0,44.31166667,-119.43472222,OR
MILLARD,2006,"San Bernardino National Forest",Lightning,24000.0,34.34166667,-116.76666667,CA
EMERALD,2006,"San Bernardino National Forest",Miscellaneous,2109.0,34.08416667,-117.09361111,CA
"PEA VINE COMPLEX",2006,"George Washington-Jefferson",Arson,2871.0,37.61472222,-79.36555556,VA
"BATTLE MOUNTAIN",2006,"Bridger-Teton National Forest",Lightning,1370.0,43.28972222,-109.96638889,WY
"JIM CREEK WFU",2006,"Bridger-Teton National Forest",Lightning,3895.0,43.1975,-109.92333333,WY
PURDY,2006,"Bridger-Teton National Forest",Lightning,16906.0,43.57305556,-110.14055556,WY
CARDINAL,2006,"George Washington-Jefferson",Arson,1935.0,38.67666667,-78.5525,VA
"BRANTLEY CABIN",2007,"Ouachita National Forest","Debris Burning",9071.0,34.26805556,-94.58416667,OK
"LITTLE VENUS",2006,"Shoshone National Forest",Lightning,34581.0,44.01194444,-109.45833333,WY
"CHANDLER FIRE",2007,"Daniel Boone National Forest",Arson,1300.0,37.18722222,-83.33833333,KY
FRIAR,2007,"George Washington-Jefferson",Miscellaneous,1070.0,37.77,-79.96055556,VA
DECKERS,2007,"Mark Twain National Forest",Arson,1212.0,37.7675,-92.07611111,MO
PROMONTORY,2007,"Tonto National Forest",Campfire,4044.0,31.36027778,-111.01083333,AZ
"HAM LAKE",2007,"Superior National Forest",Campfire,75484.0,48.06888889,-90.81138889,MN
"TEN FIRE",2007,"Gila National Forest",Lightning,1031.0,33.44861111,-108.33361111,NM
HL,2007,"Gila National Forest",Lightning,10131.0,33.56361111,-108.45916667,NM
JUMP,2007,"Apache-Sitgreaves National Forest","Debris Burning",1746.0,34.08916667,-109.3875,AZ
PINNACLE,2007,"National Forests in North Carolina",Children,2404.0,35.82,-81.925,NC
BIRDIE,2007,"Coconino National Forest",Lightning,5016.0,34.88805556,-111.53861111,AZ
RATTLESNAKE,2007,"Nezperce National Forest",Lightning,102000.0,45.42916667,-115.63666667,ID
CONCORD,2007,"Nezperce National Forest",Lightning,1500.0,45.59555556,-115.73472222,ID
JAMES,2007,"Sequoia National Forest",Miscellaneous,4200.0,35.7625,-118.4,CA
LAMPHERE,2007,"Apache-Sitgreaves National Forest",Lightning,1257.0,33.56361111,-109.08583333,AZ
GRANITE,2007,"Gila National Forest",Lightning,1918.0,33.09083333,-107.71944444,NM
"WADE HILL",2007,"Medicine Bow-Routt National Forest",Lightning,2445.0,43.81416667,-104.51444444,WY
SAGE,2007,"Inyo National Forest",Lightning,6460.0,37.13,-118.385,CA
"WOOD CREEK",2007,"Boise National Forest",Lightning,2309.0,43.52277778,-115.865,ID
"TRAPPER RIDGE",2007,"Boise National Forest",Lightning,20159.0,44.02277778,-115.35277778,ID
GOLDLEDGE,2007,"Sequoia National Forest",Miscellaneous,4200.0,35.89472222,-118.46305556,CA
CHINA,2007,"Klamath National Forest",Lightning,2906.0,41.84305556,-122.72277778,CA
"BEAR CANYON FIRE",2007,"Malheur National Forest",Lightning,52891.0,43.86666667,-119.46472222,OR
CITADEL,2007,"Shoshone National Forest",Lightning,1974.0,44.32194444,-109.53833333,WY
"SOLDIER CREEK COMPLE",2007,"Nebraska National Forest",Lightning,3587.0,42.68277778,-103.62944444,NE
MOONLIGHT,2007,"Plumas National Forest","Equipment Use",64994.45,40.21333333,-120.86416667,CA
LOCO,2007,"Gila National Forest",Lightning,1604.0,33.11305556,-108.09,NM
"RED HILL",2007,"Umatilla National Forest",Lightning,53448.0,45.01527778,-119.44972222,OR
LOST,2007,"Custer National Forest",Lightning,10733.0,45.25194444,-106.23916667,MT
WHEELER,2007,"Plumas National Forest",Lightning,22905.81,40.12861111,-120.63611111,CA
"BALLS CANYON",2007,"Humboldt-Toiyabe National Forest",Lightning,4801.0,39.68305556,-120.0375,CA
HAWKENS,2007,"Humboldt-Toiyabe National Forest","Equipment Use",2700.9,39.48583333,-119.53694444,NV
NORTH,2007,"Angeles National Forest",Lightning,2200.0,34.40333333,-118.26083333,CA
HARRIS,2007,"Dakota Prairie Grasslands","Equipment Use",2256.0,45.78083333,-102.49555556,SD
"HAY CREEK",2007,"Dakota Prairie Grasslands",Lightning,2442.3,45.65388889,-102.56944444,SD
"MIDDLE FORK",2007,"Lewis and Clark National Forest",Lightning,1146.0,46.84,-110.43944444,MT
SLIDE,2007,"Kaibab National Forest",Lightning,6000.0,36.65416667,-112.43861111,AZ
"SHEEP TRAIL",2007,"Boise National Forest",Lightning,8759.0,44.34944444,-115.49361111,ID
"TROUT MEADOWS",2007,"Umatilla National Forest",Lightning,3890.0,44.95222222,-118.48527778,OR
"OTTER CREEK",2007,"Umatilla National Forest",Lightning,3039.0,44.98555556,-118.78888889,OR
HIDDEN,2007,"Clearwater National Forest",Lightning,1400.0,46.35305556,-114.58861111,ID
"LITTLE GRIDER",2007,"Klamath National Forest",Lightning,2171.0,41.79972222,-123.42777778,CA
COTTONWOOD,2007,"Umatilla National Forest","Equipment Use",3399.0,46.27166667,-117.35833333,WA
"RED BLUFF",2007,"Salmon-Challis National Forest",Lightning,62591.0,44.74138889,-114.87138889,ID
"DEEP CREEK",2007,"Payette National Forest",Lightning,1051.0,45.24888889,-116.6875,ID
"GRAY'S CREEK",2007,"Payette National Forest",Lightning,24900.0,44.55861111,-116.36277778,ID
PINE,2007,"Cleveland National Forest",Campfire,2170.0,32.80277778,-116.56111111,CA
"FOOL CREEK",2007,"Lewis and Clark National Forest",Lightning,60038.0,47.92333333,-112.98805556,MT
AHORN,2007,"Lewis and Clark National Forest",Lightning,52505.0,47.53,-113.04666667,MT
ANGORA,2007,"Lake Tahoe Basin Management Unit",Campfire,3100.0,38.86222222,-120.05194444,CA
CALBICK,2007,"Flathead National Forest",Lightning,1011.0,46.11416667,-113.18722222,MT
RAILLEY,2007,"Flathead National Forest",Lightning,21585.0,47.29944444,-113.28083333,MT
TURTLEHEAD,2007,"Flathead National Forest",Lightning,1408.0,47.67333333,-113.21916667,MT
CORPORAL,2007,"Flathead National Forest",Lightning,16105.0,47.89166667,-113.42222222,MT
"BIG CREEK WFU",2007,"Wasatch-Cache-Uinta National Forest",Lightning,1150.0,40.47555556,-112.645,UT
PATTERSON,2007,"Gila National Forest",Lightning,1001.0,33.86055556,-108.46388889,NM
"GOAT WFU",2007,"Payette National Forest",Lightning,25907.0,45.04305556,-115.285,ID
"COTTONWOOD WFU",2007,"Payette National Forest",Lightning,14637.0,44.91916667,-115.04972222,ID
"TAG WFU",2007,"Payette National Forest",Lightning,47187.0,45.405,-114.875,ID
"LITTLE CHOPAKA",2007,"Okanogan-Wenatchee National Forest",Miscellaneous,1200.0,48.94888889,-119.68305556,WA
"POE CABIN",2007,"Wallowa-Whitman National Forest",Lightning,58520.0,45.69416667,-116.47777778,ID
"BATTLE CREEK",2007,"Wallowa-Whitman National Forest",Lightning,79149.0,45.30916667,-116.68611111,OR
"GRIZZLY RIDGE",2007,"Wallowa-Whitman National Forest",Lightning,6474.0,45.61833333,-116.80111111,OR
"MADISON ARM",2007,"Gallatin National Forest",Miscellaneous,3660.0,44.6975,-111.16944444,MT
FLETCHER,2007,"Modoc National Forest",Lightning,8121.0,41.98833333,-120.54472222,CA
"SAN ANTONIO",2007,"Coronado National Forest",Campfire,1543.0,31.34305556,-110.64833333,AZ
"GRANITE CREEK",2007,"Bridger-Teton National Forest",Lightning,1742.0,43.39861111,-110.44888889,WY
"HICKS PARK",2007,"Gallatin National Forest",Lightning,2500.0,45.29583333,-110.23166667,MT
"TROUT CREEK",2007,"Wallowa-Whitman National Forest",Lightning,1386.0,45.08888889,-117.49666667,OR
"BEAR WFU",2007,"Caribou-Targhee National Forest",Lightning,3621.0,43.23638889,-111.375,ID
"SADDLE GULCH",2007,"Wallowa-Whitman National Forest",Lightning,3975.0,45.53138889,-116.72805556,OR
LUCKY,2007,"Boise National Forest",Lightning,1582.0,44.30861111,-115.89611111,ID
LIGHTNING,2007,"Boise National Forest",Lightning,6994.0,44.17611111,-115.83972222,ID
"CHIEF PARISH",2007,"Boise National Forest",Miscellaneous,3898.0,44.02805556,-116.13694444,ID
"WICKED CREEK",2007,"Gallatin National Forest",Lightning,26600.0,45.23972222,-110.52555556,MT
"NORTH FORK",2007,"Boise National Forest",Lightning,48143.0,44.69305556,-115.84,ID
PIONEER,2007,"Chequamegon-Nicolet National Forest",Miscellaneous,1167.0,46.25361111,-91.19222222,WI
ROMBO,2007,"Bitterroot National Forest",Lightning,29062.0,45.74833333,-114.235,MT
COLUMBINE,2007,"Shoshone National Forest",Lightning,18595.0,44.4075,-110.20777778,WY
"JIM CANYON",2007,"Sawtooth National Forest",Lightning,4358.0,41.95638889,-113.20138889,UT
MONUMENTAL,2007,"Boise National Forest",Lightning,174231.0,44.495,-115.69722222,ID
SANDY,2007,"Boise National Forest",Lightning,18306.0,44.65166667,-115.47194444,ID
RIORDON,2007,"Boise National Forest",Lightning,54079.0,44.82611111,-115.45083333,ID
YELLOW,2007,"Boise National Forest",Lightning,7603.0,44.6,-115.73333333,ID
DRAKE,2007,"Nezperce National Forest",Lightning,8401.0,45.9875,-115.12833333,ID
PROFILE,2007,"Payette National Forest",Lightning,4556.0,44.98833333,-115.45388889,ID
CHAIN,2007,"Nezperce National Forest",Lightning,1728.0,46.32833333,-114.88722222,ID
LIZARD,2007,"Nezperce National Forest",Lightning,6547.0,46.23111111,-115.11583333,ID
ZACA,2007,"Los Padres National Forest","Equipment Use",240207.0,34.77916667,-120.09,CA
DOG,2007,"Nezperce National Forest",Lightning,20327.0,46.105,-114.835,ID
RAINES,2007,"Payette National Forest",Lightning,80628.66,45.31444444,-115.54138889,ID
"ZENA CREEK",2007,"Payette National Forest",Lightning,95193.0,45.06972222,-115.72944444,ID
"EL CAPITAN WEST",2007,"Bitterroot National Forest",Lightning,4622.0,45.98361111,-114.46805556,ID
"PATSY ANNE",2007,"Bitterroot National Forest",Lightning,1200.0,45.865,-114.47583333,ID
"ELKHORN RIDGE",2007,"Bitterroot National Forest",Lightning,3147.0,45.29,-114.51,ID
"HARRINGTON RIDGE",2007,"Bitterroot National Forest",Lightning,6233.0,45.51722222,-114.88416667,ID
"MAGRUDER MTN #1",2007,"Bitterroot National Forest",Lightning,4025.0,45.70055556,-114.81472222,ID
GRIZZLY,2007,"Nezperce National Forest",Lightning,3451.0,46.10333333,-114.92666667,ID
BATTLE,2007,"Nezperce National Forest",Lightning,4654.0,46.22833333,-114.59166667,ID
"BIG POINT",2007,"Ozark-St. Francis National Forest",Arson,1653.0,35.74861111,-92.90694444,AR
SHORTOFF,2007,"National Forests in North Carolina",Lightning,5015.0,35.84,-81.89055556,NC
"CLEAR SAGE",2007,"Salmon-Challis National Forest",Lightning,19941.0,45.22027778,-114.43805556,ID
PAPOOSE,2007,"Salmon-Challis National Forest",Lightning,19520.0,45.27,-114.805,ID
"BONE CREEK",2007,"Bighorn National Forest",Lightning,13450.0,44.60055556,-107.67083333,WY
"LITTLE GOOSE",2007,"Bighorn National Forest",Lightning,4742.0,44.585,-107.07083333,WY
"WARM SPRINGS",2007,"Payette National Forest",Lightning,23760.0,44.38333333,-117.07055556,ID
DOMKE,2007,"Okanogan-Wenatchee National Forest",Lightning,11791.0,48.16722222,-120.59944444,WA
"RATTLESNAKE CREEK",2007,"Okanogan-Wenatchee National Forest",Lightning,1700.0,46.75416667,-121.23472222,WA
WHISKEY,2007,"Okanogan-Wenatchee National Forest",Lightning,1070.0,48.84944444,-119.46333333,WA
HORTON,2007,"Payette National Forest",Lightning,1407.0,45.11888889,-116.07194444,ID
"PIGEON BRANCH",2007,"Cherokee National Forest",Lightning,2115.0,35.99194444,-82.91222222,TN
SHOWERBATH,2007,"Salmon-Challis National Forest",Lightning,60009.0,44.62083333,-114.62222222,ID
MERIWETHER,2007,"Helena National Forest",Lightning,46298.0,46.86972222,-111.88222222,MT
"BOUNDARY JUNCTION",2007,"Clearwater National Forest",Lightning,5100.0,46.37305556,-115.58166667,ID
"BLACK PINE 2",2007,"Sawtooth National Forest",Lightning,72361.0,42.20194444,-113.2175,ID
"BALL POINT",2007,"Mt. Hood National Forest",Lightning,1237.0,45.3,-121.36666667,OR
"EASY STREET",2007,"Okanogan-Wenatchee National Forest",Miscellaneous,5209.0,47.4875,-120.38083333,WA
"LOON LAKE",2007,"Payette National Forest",Lightning,120077.0,45.13777778,-115.85583333,ID
"VAN HORN",2007,"Salmon-Challis National Forest",Lightning,1650.0,44.76527778,-114.29583333,ID
CHITTY,2007,"Apache-Sitgreaves National Forest",Lightning,15000.0,33.57027778,-109.38083333,AZ
"FRENCH CREEK WFU",2007,"Manti-Lasal National Forest",Lightning,3382.0,39.77083333,-111.23611111,UT
CATHEDRAL,2007,"Humboldt National Forest",Lightning,3847.0,39.14777778,-115.48916667,NV
SKYLAND,2007,"Flathead National Forest",Lightning,44176.0,48.27138889,-113.39527778,MT
TOAD,2007,"Dixie National Forest",Lightning,1390.0,37.70666667,-111.83027778,UT
POTTS,2007,"George Washington-Jefferson",Miscellaneous,1050.0,37.53416667,-80.50944444,VA
"SILVER FIRE",2007,"Malheur National Forest",Lightning,31624.7,43.855,-119.68166667,OR
GRAPPLE,2007,"Malheur National Forest",Lightning,1056.0,44.0375,-118.82972222,OR
GW,2007,"Deschutes National Forest",Lightning,7357.0,44.34305556,-121.80638889,OR
SQUAW,2007,"Apache-Sitgreaves National Forest",Lightning,2800.0,33.3875,-109.2625,AZ
BRIDGE,2007,"Clearwater National Forest",Lightning,42694.0,46.3675,-114.57111111,ID
PATTENGAIL,2007,"Beaverhead-Deerlodge National Forest",Lightning,15297.0,45.69111111,-113.25638889,MT
"POISON CREEK",2007,"Malheur National Forest",Lightning,1274.8,43.99777778,-118.80527778,OR
EGLEY,2007,"Malheur National Forest",Lightning,55420.0,43.6675,-119.43027778,OR
"RAT CREEK",2007,"Beaverhead-Deerlodge National Forest",Lightning,25877.0,45.74444444,-113.80944444,MT
"CONGER CREEK",2007,"Lolo National Forest",Lightning,25150.0,47.21638889,-113.03694444,MT
SANTIAGO,2007,"Cleveland National Forest",Miscellaneous,28476.0,33.74583333,-117.66666667,CA
"FLORIDA BUGABOO",2007,"National Forests in Florida",Lightning,123014.0,30.5,-82.36666667,FL
SAWMILL,2007,"Lolo National Forest",Lightning,14233.0,46.60194444,-113.70027778,MT
"FISHER POINT",2007,"Lolo National Forest",Lightning,18222.0,46.49583333,-113.66555556,MT
"WYMAN #2",2007,"Lolo National Forest",Lightning,36045.0,46.3475,-113.7425,MT
"CHIMNEY COMPLEX",2007,"Wallowa-Whitman National Forest",Lightning,51000.0,45.9875,-116.89777778,ID
"DUTCH WILDFIRE USE",2007,"Kaibab National Forest",Lightning,3148.0,35.13972222,-112.25027778,AZ
"CASTLE ROCK",2007,"Sawtooth National Forest",Lightning,48000.0,43.6375,-114.56111111,ID
WILKINS,2007,"Apache-Sitgreaves National Forest",Lightning,7762.0,34.58916667,-111.02277778,AZ
"BUTLER 2",2007,"San Bernardino National Forest",Miscellaneous,14039.0,34.25805556,-117.01027778,CA
"GRASS VALLEY",2007,"San Bernardino National Forest",Miscellaneous,1247.0,34.27472222,-117.21694444,CA
SLIDE,2007,"San Bernardino National Forest",Miscellaneous,12759.0,34.25194444,-117.05,CA
RANCH,2007,"Los Padres National Forest","Equipment Use",45300.0,34.57305556,-118.69833333,CA
WALLOW,2007,"Shasta-Trinity National Forest","Equipment Use",1440.0,40.48388889,-123.35194444,CA
CANYON,2007,"Gila National Forest",Lightning,1093.0,33.37388889,-108.38416667,NM
WOODLAND,2007,"Gila National Forest",Lightning,8000.0,33.29583333,-108.34555556,NM
WITCH,2007,"Cleveland National Forest",Miscellaneous,197990.0,33.07444444,-116.71111111,CA
RICE,2007,"Cleveland National Forest",Miscellaneous,9472.0,33.39694444,-117.14805556,CA
GROUSE,2007,"Sequoia National Forest",Lightning,1022.0,36.27805556,-118.42166667,CA
BUCKWEED,2007,"Angeles National Forest",Children,38356.0,34.52444444,-118.33472222,CA
POOMACHA,2007,"Cleveland National Forest",Miscellaneous,49390.0,33.2775,-116.86805556,CA
SALTLICK,2007,"Bridger-Teton National Forest",Miscellaneous,2582.0,43.23416667,-109.94166667,WY
"HORSE CREEK",2007,"Bridger-Teton National Forest",Miscellaneous,8590.0,42.93111111,-110.48,WY
MIDDLE,2007,"Bridger-Teton National Forest",Lightning,2714.0,43.1475,-110.86388889,WY
HARDSCRABBLE,2007,"Bridger-Teton National Forest",Lightning,3074.0,43.67083333,-110.12055556,WY
"JUNGLE RX BURN",2007,"Manti-Lasal National Forest",Miscellaneous,5315.0,39.135,-111.39722222,UT
"POTATO HILL",2007,"Ouachita National Forest",Lightning,4000.0,35.02972222,-93.62916667,AR
"POLE CREEK",2007,"Bridger-Teton National Forest",Miscellaneous,1044.0,42.86666667,-109.81666667,WY
"BRUSH CREEK",2007,"Flathead National Forest",Lightning,29921.0,48.33472222,-114.90138889,MT
"BALL GOAL",2008,"National Forests in Mississippi",Miscellaneous,2174.0,31.11833333,-89.14166667,MS
SNAKEWEED,2008,"Pike San Isabel National Forest","Debris Burning",1227.0,37.66638889,-103.74055556,CO
"LONE OAK",2008,"Cherokee National Forest",Arson,1500.0,36.26583333,-82.36194444,TN
SUNRISE,2008,"National Forests in North Carolina",Miscellaneous,2005.0,35.87111111,-81.92972222,NC
"FRYE MESA",2008,"Coronado National Forest",Miscellaneous,3094.0,32.75777778,-109.82888889,AZ
"ST. MARY'S",2008,"George Washington-Jefferson",Miscellaneous,4505.0,37.93305556,-78.1675,VA
ALAMO,2008,"Coronado National Forest",Campfire,5070.0,31.36527778,-111.12388889,AZ
MEADOW,2008,"Coronado National Forest","Equipment Use",3876.0,31.45694444,-110.655,AZ
"TWENTY TWO   WFU",2008,"Kaibab National Forest",Lightning,1255.0,35.88277778,-111.94416667,AZ
X,2008,"Kaibab National Forest",Campfire,2048.0,35.93083333,-112.12166667,AZ
"CORN CREEK",2008,"Dixie National Forest",Miscellaneous,2269.0,37.78277778,-111.84138889,UT
INDIANS,2008,"Los Padres National Forest",Campfire,81378.0,36.10527778,-121.43083333,CA
WHITMIRE,2008,"Coronado National Forest",Miscellaneous,4046.0,31.52611111,-108.97666667,NM
THREE,2008,"Klamath National Forest",Lightning,4913.0,41.59972222,-123.5675,CA
"JACK WOOD",2008,"Coronado National Forest",Lightning,8609.0,31.76472222,-109.16527778,AZ
"BEAR CREEK",2008,"Dixie National Forest",Campfire,1464.0,37.9975,-111.48305556,UT
CARIBOU,2008,"Klamath National Forest",Lightning,13116.0,41.03472222,-123.00277778,CA
BUCK,2008,"Coronado National Forest",Miscellaneous,2021.0,31.59416667,-109.36083333,AZ
"BASIN COMPLEX",2008,"Los Padres National Forest",Lightning,162818.0,36.28111111,-121.65833333,CA
REDINGTON,2008,"Coronado National Forest",Lightning,2000.0,32.60083333,-110.40388889,AZ
COLD,2008,"Plumas National Forest",Lightning,5512.0,39.84222222,-120.83666667,CA
TRIGO,2008,"Cibola National Forest",Campfire,13709.0,34.66,-106.46666667,NM
"BEAR MOUNTAIN",2008,"Apache-Sitgreaves National Forest",Lightning,2494.0,33.54222222,-109.14027778,AZ
"BIG SPRING",2008,"Cibola National Forest",Lightning,5478.0,34.77055556,-106.38305556,NM
OLIVER,2008,"Sierra National Forest",Lightning,2200.0,37.48722222,-119.75388889,CA
PANTHER,2008,"Klamath National Forest",Lightning,44452.0,41.5925,-123.43166667,CA
DARK,2008,"Klamath National Forest",Lightning,10388.0,41.61555556,-123.57694444,CA
GAP,2008,"Los Padres National Forest",Miscellaneous,9443.0,34.50083333,-119.86055556,CA
EAGLE,2008,"Shasta-Trinity National Forest",Lightning,32059.0,40.73416667,-123.16666667,CA
ZEIGLER,2008,"Shasta-Trinity National Forest",Lightning,2349.0,40.86666667,-123.475,CA
ROCKY,2008,"Lincoln National Forest",Lightning,49092.0,32.44777778,-104.92916667,NM
IRONSIDE,2008,"Shasta-Trinity National Forest",Lightning,12720.0,40.83333333,-123.43416667,CA
PETERSON,2008,"Lassen National Forest",Lightning,2750.0,40.9125,-121.34166667,CA
"HELLS HALF SADDLE",2008,"Bitterroot National Forest",Lightning,1861.0,45.68833333,-114.61277778,ID
"WOOD HUMP",2008,"Bitterroot National Forest",Lightning,5311.0,45.54055556,-114.50944444,ID
CASCADE,2008,"Custer National Forest",Miscellaneous,10173.0,45.16944444,-109.4875,MT
RICH,2008,"Plumas National Forest",Railroad,6112.0,40.02,-121.1675,CA
"ANTHONY MILNE",2008,"Klamath National Forest",Lightning,1779.0,41.505,-123.18166667,CA
BRIDGER,2008,"Pike San Isabel National Forest",Lightning,45814.0,37.52694444,-103.76944444,CO
DISTILLERY,2008,"Coronado National Forest",Lightning,7950.0,32.06166667,-110.52916667,AZ
MILL,2008,"Mendocino National Forest",Lightning,3043.0,39.47833333,-123.04333333,CA
VENTURE,2008,"Lassen National Forest",Lightning,1912.0,40.99333333,-121.60166667,CA
BROWN,2008,"Dakota Prairie Grasslands",Lightning,2405.0,46.5275,-103.875,ND
ELBOW,2008,"Nezperce National Forest",Lightning,1179.0,46.21305556,-114.66333333,ID
"WARM SPRINGS",2008,"Nezperce National Forest",Lightning,1112.0,45.83416667,-114.97833333,ID
RATTLESNAKE,2008,"Nezperce National Forest",Campfire,2520.0,46.06861111,-114.86722222,ID
MINERS,2008,"Shasta-Trinity National Forest",Lightning,24776.0,40.66972222,-123.30555556,CA
LIME,2008,"Shasta-Trinity National Forest",Lightning,25199.0,40.51833333,-123.42277778,CA
DEADSHOT,2008,"Shasta-Trinity National Forest",Lightning,1069.0,40.48388889,-122.92972222,CA
SLIDE,2008,"Shasta-Trinity National Forest",Lightning,1158.0,40.66611111,-123.52027778,CA
TELEPHONE,2008,"Shasta-Trinity National Forest",Lightning,6625.0,40.40666667,-123.13194444,CA
"TROUGH #1",2008,"Shasta-Trinity National Forest",Lightning,3674.0,40.20055556,-123.12472222,CA
NOBLE,2008,"Shasta-Trinity National Forest",Lightning,12856.0,40.32583333,-122.96222222,CA
DEERLICK,2008,"Shasta-Trinity National Forest",Lightning,10213.0,40.46333333,-122.88277778,CA
IRON,2008,"Shasta-Trinity National Forest",Lightning,32903.0,40.14583333,-122.86611111,CA
BIG,2008,"Mendocino National Forest",Lightning,2193.0,39.42888889,-123.06416667,CA
"MONKEY  ROCK",2008,"Mendocino National Forest",Lightning,1829.0,39.55222222,-122.96138889,CA
"HORSE MOUNTAIN",2008,"Siskiyou National Forest",Lightning,1165.0,42.37416667,-123.74416667,OR
BACK,2008,"Mendocino National Forest",Lightning,1567.0,39.375,-122.97555556,CA
PORCUPINE,2008,"Nezperce National Forest",Lightning,2250.0,45.72055556,-115.09805556,ID
VINEGAR,2008,"Mendocino National Forest",Lightning,17449.0,40.06722222,-122.93083333,CA
WHISKEY,2008,"Mendocino National Forest",Miscellaneous,7783.0,39.89388889,-122.7075,CA
TRACY,2008,"National Forests in Florida",Miscellaneous,1081.0,29.02472222,-81.49777778,FL
GULCH,2008,"Shasta-Trinity National Forest","Equipment Use",2847.0,40.36666667,-122.935,CA
CUB,2008,"Lassen National Forest",Lightning,14936.0,40.17916667,-121.47027778,CA
"ONION 2",2008,"Lassen National Forest",Lightning,4851.0,40.18083333,-121.56666667,CA
LITTLE,2008,"Plumas National Forest",Lightning,1450.0,39.77333333,-121.25027778,CA
SOUTH,2008,"Plumas National Forest",Lightning,1000.0,39.70611111,-121.25055556,CA
BONANZA,2008,"Six Rivers National Forest",Lightning,1370.0,40.2225,-123.22222222,CA
"HOT AIR",2008,"Apache-Sitgreaves National Forest",Lightning,8300.0,33.475,-109.3875,AZ
"THE MILL WFU",2008,"Kaibab National Forest",Lightning,1710.0,36.56888889,-112.3725,AZ
"LANE 2",2008,"Prescott National Forest",Campfire,9629.0,34.17361111,-112.33972222,AZ
GUNBARREL,2008,"Shoshone National Forest",Lightning,68148.0,44.495,-109.8225,WY
"E. SLIDE ROCK RIDGE",2008,"Humboldt National Forest",Lightning,54545.0,41.78,-115.32666667,NV
"JACK CREEK",2008,"Okanogan-Wenatchee National Forest",Lightning,1132.0,47.50722222,-120.93444444,WA
"STEVENS CREEK",2007,"Humboldt National Forest",Lightning,7631.9,40.97166667,-115.26361111,NV
CAYUSE,2008,"Okanogan-Wenatchee National Forest","Debris Burning",1778.0,48.69027778,-119.21444444,WA
GOVERNMENT,2008,"Tahoe National Forest",Lightning,9164.0,39.21555556,-120.64861111,CA
RATTLE,2008,"Umpqua National Forest",Lightning,19775.0,43.32944444,-122.54388889,OR
CHALK,2008,"Los Padres National Forest",Miscellaneous,11200.0,36.0025,-121.43972222,CA
"LONG BRANCH-JACK",2008,"Lassen National Forest",Lightning,3934.0,39.95166667,-121.33388889,CA
"WEST ELK",2008,"Grand Mesa, Uncompahgre and Gunnison National Forests",Lightning,1587.0,38.55138889,-107.26666667,CO
"OLD 15TH",2008,"Cherokee National Forest",Lightning,2000.0,35.92277778,-83.06722222,TN
"CABIN CREEK",2008,"Payette National Forest","Debris Burning",5500.0,45.14361111,-114.92777778,ID
CLOVER,2008,"Sequoia National Forest",Lightning,15300.0,36.11666667,-118.13361111,CA
"SHINGLE MILL WFU",2008,"Bridger-Teton National Forest",Lightning,1381.0,42.23027778,-110.70555556,WY
PIUTE,2008,"Sequoia National Forest",Miscellaneous,37026.0,35.41916667,-118.40027778,CA
"GNARL RIDGE",2008,"Mt. Hood National Forest",Lightning,3280.0,45.35222222,-121.635,OR
HONEYBEE,2008,"Sequoia National Forest",Lightning,1225.0,35.16666667,-118.05222222,CA
AT&T,2008,"Cibola National Forest",Lightning,1675.0,36.27777778,-102.47416667,TX
MILL,2008,"Six Rivers National Forest",Lightning,65834.0,41.56333333,-123.59472222,CA
"BLUE 2",2008,"Six Rivers National Forest",Lightning,17540.0,41.56527778,-123.82055556,CA
HALF,2008,"Six Rivers National Forest",Lightning,15118.0,40.77111111,-123.52777778,CA
JAKE,2008,"Six Rivers National Forest",Lightning,38394.0,41.35638889,-123.37611111,CA
HAYPRESS,2008,"Six Rivers National Forest",Lightning,13654.0,41.45333333,-123.39305556,CA
MERRILL,2008,"Six Rivers National Forest",Lightning,8332.0,41.42527778,-123.43111111,CA
"LOST EDEN",2008,"Coconino National Forest",Lightning,1500.0,34.62388889,-111.26333333,AZ
"MIDDLE FORK",2008,"Rogue River-Siskiyou National Forest",Lightning,21125.0,42.71916667,-122.25611111,OR
"BOMBING RANGE",2008,"National Forests in Florida","Equipment Use",1200.0,29.13416667,-81.71805556,FL
SCOTCHMAN,2008,"Tahoe National Forest",Lightning,1230.0,39.34944444,-120.77916667,CA
FALL,2008,"Tahoe National Forest",Lightning,2420.0,39.36,-120.69666667,CA
WESTVILLE,2008,"Tahoe National Forest",Lightning,10836.0,39.16333333,-120.66,CA
"WILLOW WFU",2008,"Caribou-Targhee National Forest",Lightning,5664.0,44.52361111,-111.56444444,ID
MAREK,2008,"Angeles National Forest",Miscellaneous,4824.0,34.29472222,-118.36111111,CA
"TIMBER WFU",2008,"Caribou-Targhee National Forest",Lightning,1646.0,44.50166667,-112.0225,ID
BUCKHORN,2008,"Shasta-Trinity National Forest",Lightning,31419.0,40.86666667,-123.28527778,CA
CAREY,2008,"Shasta-Trinity National Forest",Lightning,3044.0,41.07222222,-123.3025,CA
CEDAR,2008,"Shasta-Trinity National Forest",Lightning,25398.0,40.78138889,-123.43361111,CA
MOTION,2008,"Shasta-Trinity National Forest",Lightning,28336.0,40.71666667,-122.43444444,CA
PIT,2008,"Plumas National Forest",Lightning,11496.0,39.97,-121.29638889,CA
TEHIPITE,2008,"Sierra National Forest",Lightning,7456.0,36.90361111,-118.80111111,CA
"SOUTH BARKER",2008,"Sawtooth National Forest",Lightning,37725.0,43.62527778,-115.22888889,ID
"WHITE TANK",2008,"Coronado National Forest",Lightning,8135.0,31.57,-111.14361111,AZ
"NUEVO FIRE",2008,"Coronado National Forest",Lightning,1533.0,31.49527778,-111.17027778,AZ
"1056    WIZARD",2008,"Deschutes National Forest",Miscellaneous,1800.0,44.55666667,-121.6225,OR
"GUM BAY",2008,"National Forests in Florida",Miscellaneous,10458.0,30.09916667,-84.69111111,FL
"RUSH CREEK",2008,"Payette National Forest",Lightning,1435.0,44.98722222,-114.98722222,ID
WESTY,2008,"Payette National Forest",Lightning,4320.0,45.05888889,-114.98583333,ID
EAGLE,2008,"Apache-Sitgreaves National Forest",Miscellaneous,3852.0,33.5,-109.375,AZ
CAYUSE,2008,"Salmon-Challis National Forest",Lightning,1584.0,45.505,-114.59333333,ID
SCOTCH,2008,"Plumas National Forest",Lightning,13009.0,39.78611111,-121.18722222,CA
"COLD SPRINGS",2008,"Gifford Pinchot National Forest",Lightning,4728.0,46.11944444,-121.49972222,WA
"0792   SUMMIT SPRING",2008,"Deschutes National Forest",Lightning,1926.0,44.42361111,-121.50555556,OR
"NEW FORK",2008,"Bridger-Teton National Forest",Campfire,15089.0,43.10833333,-109.91277778,WY
MILL,2008,"Lassen National Forest",Lightning,4747.0,40.15027778,-121.8475,CA
SMOKEY,2008,"Lassen National Forest",Lightning,1324.0,40.05472222,-121.62555556,CA
YELLOW,2008,"Mendocino National Forest",Lightning,32250.0,40.07555556,-123.09638889,CA
"NORTH MTN",2008,"Stanislaus National Forest",Lightning,2889.0,37.895,-119.91805556,CA
TELEGRAPH,2008,"Stanislaus National Forest",Miscellaneous,34091.0,37.5675,-119.99694444,CA
"0644  OCHOCOFIREUSE",2008,"Ochoco National Forest",Lightning,1620.0,44.34055556,-119.71277778,OR
"LITTLE CUBA",2008,"George Washington-Jefferson",Miscellaneous,2738.0,37.4325,-80.11777778,VA
"BLACK HORSE",2008,"George Washington-Jefferson","Equipment Use",1550.0,37.41083333,-79.76805556,VA
"0741 BRIDGE CREEK",2008,"Ochoco National Forest",Lightning,4891.0,44.48277778,-120.21722222,OR
"ELKHORN 2",2008,"Humboldt-Toiyabe National Forest",Miscellaneous,6182.0,38.58777778,-116.6775,NV
GROUSE,2008,"Mendocino National Forest",Lightning,6246.0,40.11972222,-122.98361111,CA
TEA,2008,"Los Padres National Forest",Campfire,1940.0,34.45777778,-119.66055556,CA
SAYRE,2008,"Angeles National Forest",Miscellaneous,11222.0,34.33,-118.41111111,CA
BARRACUDA,2008,"National Forests in Mississippi",Miscellaneous,2640.0,31.09833333,-89.11166667,MS
LIPSTICK,2008,"National Forests in Mississippi",Miscellaneous,2354.0,31.125,-89.13,MS
"MARTEEN WFU",2008,"Kaibab National Forest",Lightning,10788.73,35.44333333,-112.02277778,AZ
FREEWAY,2008,"Cleveland National Forest",Miscellaneous,30305.0,33.87277778,-117.73888889,CA
STEIN,2008,"Shasta-Trinity National Forest",Lightning,1209.0,40.80722222,-122.09777778,CA
"COAL CREEK",2008,"Grand Mesa, Uncompahgre and Gunnison National Forests",Lightning,1485.0,38.98,-108.20305556,CO
CORRAL,2008,"Lassen National Forest",Lightning,12500.0,40.875,-120.875,CA
ELENA,2009,"Cibola National Forest",Miscellaneous,2400.0,35.63694444,-99.81916667,OK
JESUSITA,2009,"Los Padres National Forest","Equipment Use",8733.0,34.47416667,-119.72805556,CA
"JUNIPER SPRINGS #10",2009,"National Forests in Florida",Campfire,10022.0,29.19194444,-81.69722222,FL
PIONEER,2009,"Tonto National Forest",Lightning,1633.0,33.2775,-110.77305556,AZ
BRIDGE,2009,"Dixie National Forest",Lightning,4759.0,37.54583333,-112.275,UT
MONTANA,2009,"Coronado National Forest",Arson,2455.0,31.46194444,-111.16083333,AZ
HOG,2009,"Coronado National Forest",Campfire,16802.0,31.50222222,-109.08361111,AZ
SKELETON,2009,"Coronado National Forest",Lightning,8591.0,31.56444444,-109.00583333,NM
"HORSE VALLEY",2009,"Dixie National Forest",Lightning,2889.0,37.76111111,-112.65277778,UT
"EIGHTMILE CREEK",2009,"Boise National Forest",Lightning,1264.0,44.155,-115.41333333,ID
WILLOW,2009,"Gila National Forest",Lightning,9000.0,33.75944444,-108.52888889,NM
FORKS,2009,"Inyo National Forest",Lightning,3268.0,37.26805556,-118.58388889,CA
RIM,2009,"Tonto National Forest",Lightning,2500.0,34.42972222,-111.23527778,AZ
CANELO,2009,"Coronado National Forest","Equipment Use",4208.0,31.55805556,-110.51333333,AZ
LOCHIEL,2009,"Coronado National Forest",Miscellaneous,2660.0,31.3575,-110.63472222,AZ
"MILL FLAT",2009,"Dixie National Forest",Lightning,12607.0,37.43833333,-113.39277778,UT
"LAKE FORK",2009,"Manti-Lasal National Forest",Lightning,2121.0,39.90361111,-111.52666667,UT
"KELSAY BUTTE",2009,"Umatilla National Forest",Lightning,6900.0,44.92472222,-118.65138889,OR
"BIG POLE",2009,"Wasatch-Cache-Uinta National Forest",Lightning,44345.0,40.61361111,-112.66638889,UT
REDSPOT,2009,"Shasta-Trinity National Forest",Lightning,1120.0,41.15138889,-123.40138889,CA
REAL,2009,"Coconino National Forest",Lightning,1545.0,34.865,-111.56138889,AZ
RUBY,2009,"Kaibab National Forest",Lightning,4106.5,35.91416667,-111.99972222,AZ
TENNANT,2009,"Klamath National Forest","Equipment Use",3226.0,41.71194444,-122.05,CA
BOARD,2009,"Tonto National Forest",Lightning,1082.0,33.97583333,-110.92694444,AZ
"KOOTENAI CREEK",2009,"Bitterroot National Forest",Lightning,6990.0,46.5525,-114.23527778,MT
LOAF,2009,"Lassen National Forest",Lightning,9356.0,40.68333333,-121.46666667,CA
BROWN,2009,"Lassen National Forest",Lightning,1865.0,40.83388889,-121.54222222,CA
MOORE,2009,"Gila National Forest",Lightning,4100.0,33.19444444,-108.04222222,NM
GUTHRIE,2009,"Coronado National Forest",Lightning,4852.0,32.91194444,-110.66111111,AZ
MORRIS,2009,"Angeles National Forest",Arson,2163.0,34.18666667,-117.87083333,CA
GOOSE,2009,"Shasta-Trinity National Forest",Lightning,3949.0,40.955,-121.79444444,CA
CHALK,2009,"Shasta-Trinity National Forest",Lightning,6923.0,40.98055556,-121.81388889,CA
"BIG SHEEP RIDGE",2009,"Wallowa-Whitman National Forest",Lightning,3465.6,45.40416667,-117.57194444,OR
MICROWAVE,2009,"Columbia River Gorge National Scenic Area",Miscellaneous,1255.0,45.68,-121.40888889,OR
RAE,2009,"Kaibab National Forest",Lightning,1392.0,35.93805556,-112.07527778,AZ
MILLER,2009,"Kaibab National Forest",Lightning,3160.0,35.88055556,-112.065,AZ
ANDERSON,2009,"Kaibab National Forest",Lightning,1238.0,35.84527778,-111.85916667,AZ
"LA BREA",2009,"Los Padres National Forest",Miscellaneous,91622.0,34.94972222,-119.97777778,CA
BRICKYARD,2009,"National Forests in Florida",Miscellaneous,1351.0,29.96611111,-84.97916667,FL
INDEPENDENCE,2009,"Coconino National Forest",Lightning,1370.0,34.49888889,-111.355,AZ
OR-MAF-149,2009,"Malheur National Forest",Campfire,1100.0,44.31,-118.92,OR
"LAWRENCE MTN",2009,"Kootenai National Forest",Lightning,2400.0,48.615,-115.42388889,MT
"SAN MIGUEL",2009,"Santa Fe National Forest",Lightning,1635.0,35.73,-106.34888889,NM
KNIGHT,2009,"Stanislaus National Forest",Miscellaneous,6130.0,38.175,-120.24916667,CA
GRANITE,2009,"Sequoia National Forest",Lightning,1417.0,36.15361111,-118.22472222,CA
LION,2009,"Sequoia National Forest",Lightning,2577.0,36.13361111,-118.29888889,CA
PIPELINE,2009,"Kaibab National Forest",Lightning,1270.0,36.59444444,-112.36638889,AZ
"RED ROCK",2009,"Klamath National Forest",Miscellaneous,1364.0,41.55194444,-123.16694444,CA
TUMBLEBUG,2009,"Willamette National Forest",Lightning,14560.0,43.47416667,-122.10194444,OR
"CAROLINA BAY",2009,"National Forests in North Carolina",Lightning,2660.0,34.75,-76.95,NC
"GRAND RIVER (DEWEY)",2009,"Dakota Prairie Grasslands",Miscellaneous,1063.0,45.76916667,-102.41833333,SD
RAPTOR,2009,"Coconino National Forest",Lightning,1922.0,34.84666667,-111.46027778,AZ
BRADFIELD,2009,"San Juan National Forest",Lightning,2400.0,37.62972222,-108.66361111,CO
GUNSIGHT,2009,"Bridger-Teton National Forest",Miscellaneous,3257.0,43.63333333,-110.2975,WY
NARRAGUINNEP,2009,"San Juan National Forest",Lightning,7300.0,37.64638889,-108.71833333,CO
"GABE CREEK",2009,"Flathead National Forest",Lightning,1932.0,47.41833333,-113.31805556,MT
SHEEP,2009,"San Bernardino National Forest",Miscellaneous,7128.0,34.22972222,-117.47833333,CA
SLIDE,2009,"Bitterroot National Forest",Lightning,1150.0,45.60083333,-114.91666667,ID
DURFEE,2009,"Apache-Sitgreaves National Forest",Lightning,6399.0,34.5275,-110.77111111,AZ
"LILY LAKE",2009,"Beaverhead-Deerlodge National Forest",Lightning,2120.0,45.62388889,-113.31694444,MT
FISH,2009,"Coronado National Forest",Miscellaneous,1050.0,31.72305556,-110.76638889,AZ
FRACAS,2009,"Kaibab National Forest",Lightning,2339.0,36.66416667,-112.25027778,AZ
RED,2009,"Coconino National Forest",Lightning,2203.0,35.51055556,-111.88833333,AZ
BIELENBURG,2009,"Beaverhead-Deerlodge National Forest",Lightning,1950.0,46.28805556,-112.96305556,MT
"TABLE MOUNTAIN",2009,"Beaverhead-Deerlodge National Forest",Lightning,5280.0,46.06361111,-113.71666667,MT
"WAGON DRAW",2009,"Apache-Sitgreaves National Forest",Lightning,1252.0,34.48222222,-110.8,AZ
WEIMER,2009,"Apache-Sitgreaves National Forest",Lightning,4170.0,34.46166667,-110.81472222,AZ
CROSS,2009,"Kaibab National Forest",Lightning,7718.0,35.0225,-112.0775,AZ
CROSSING,2009,"Apache-Sitgreaves National Forest",Lightning,2769.0,34.41944444,-110.96722222,AZ
WILDHORSE,2009,"Kaibab National Forest",Lightning,13790.0,35.46722222,-111.91638889,AZ
"MILL CREEK 4",2009,"Six Rivers National Forest",Arson,3689.0,41.19416667,-123.62916667,CA
BOZE,2009,"Umpqua National Forest",Lightning,10721.0,43.1525,-122.53472222,OR
"TWIN PEAKS",2009,"Okanogan-Wenatchee National Forest",Lightning,1200.0,46.62916667,-121.33666667,WA
DISCOVERY,2009,"Okanogan-Wenatchee National Forest",Lightning,4132.0,46.50527778,-121.23388889,WA
"RAINBOW CREEK",2009,"Umpqua National Forest",Lightning,5740.0,43.1425,-122.45944444,OR
"COOPER SPRING",2009,"Manti-Lasal National Forest",Lightning,1320.0,37.79305556,-109.91111111,UT
"GIRD END",2009,"Bitterroot National Forest",Lightning,2514.0,46.23555556,-113.88388889,MT
PRESTON-FOX,2009,"Okanogan-Wenatchee National Forest","Debris Burning",1400.0,47.9225,-120.41777778,WA
STATION,2009,"Angeles National Forest",Arson,160371.0,34.2425,-118.18888889,CA
"LT-17 (BACKBONE)",2009,"Six Rivers National Forest",Lightning,5065.0,41.04,-123.46333333,CA
MEASON,2009,"Gila National Forest",Lightning,7055.0,33.14194444,-108.02194444,NM
DIAMOND,2009,"Gila National Forest",Lightning,22000.0,33.27555556,-108.03805556,NM
RENO,2009,"Apache-Sitgreaves National Forest",Lightning,6322.0,33.60527778,-109.44388889,AZ
"WILLIAMS CREEK",2009,"Umpqua National Forest",Miscellaneous,8395.0,43.33861111,-122.78694444,OR
TAYLOR,2009,"Coconino National Forest",Lightning,3545.0,35.00444444,-111.93333333,AZ
BRADY,2009,"Coconino National Forest",Lightning,4000.0,34.68444444,-111.48138889,AZ
"NUGGET 4",2009,"Idaho Panhandle National Forest","Debris Burning",1534.0,47.19333333,-115.59638889,ID
"MELENDREZ PASS",2009,"Coronado National Forest",Lightning,5791.0,31.77083333,-110.82222222,AZ
COTTONWOOD,2009,"San Bernardino National Forest",Miscellaneous,2409.0,33.73611111,-116.81805556,CA
BOW,2009,"Coconino National Forest",Lightning,2940.0,34.61333333,-111.3875,AZ
"JULY 4TH COMPLEX",2009,"Coconino National Forest",Lightning,3084.0,34.48472222,-111.23388889,AZ
TUCKER,2009,"Coconino National Forest",Lightning,2600.0,34.49083333,-111.16805556,AZ
POINT,2009,"Coconino National Forest",Lightning,1295.0,34.41,-111.41805556,AZ
DOMINGUEZ,2009,"Grand Mesa, Uncompahgre and Gunnison National Forests",Lightning,2599.0,38.73888889,-108.57555556,CO
"OAK GLEN",2009,"San Bernardino National Forest",Arson,4000.0,34.05027778,-117.01,CA
"SOLOMON BASIN",2009,"Fishlake National Forest",Lightning,2475.0,38.54111111,-111.46638889,UT
BLANK,1992,"Custer National Forest",Lightning,7379.0,45.18333333,-105.88333333,MT
SCOTT,1992,"Nezperce National Forest",Lightning,6080.0,45.44166667,-115.98833333,ID
"PORCUPINE CREEK",1992,"Nezperce National Forest",Lightning,13925.0,45.51333333,-115.81666667,ID
"CROOKED CREEK",1992,"Nezperce National Forest",Lightning,23654.0,45.47833333,-115.635,ID
"BITTER CREEK",1992,"Black Hills National Forest",Miscellaneous,2443.0,43.97666667,-103.40666667,SD
EDWARDS,1992,"Medicine Bow-Routt National Forest",Miscellaneous,1477.0,43.60833333,-105.31,WY
GILLESPIE,1992,"Coronado National Forest",Lightning,1275.0,32.58333333,-109.82333333,AZ
"STATE PARK",1992,"Coronado National Forest",Miscellaneous,1581.0,32.42666667,-110.915,AZ
BEAVER,1992,"Gila National Forest",Lightning,3150.0,33.39166667,-108.225,NM
CREEL,1992,"Gila National Forest",Lightning,29000.0,33.31666667,-108.41666667,NM
GOBBLER,1992,"Gila National Forest",Lightning,6000.0,33.18333333,-108.58333333,NM
CUB,1992,"Gila National Forest",Lightning,4000.0,33.36666667,-108.56666667,NM
FOOTHILLS,1992,"Boise National Forest",Lightning,177544.0,43.48,-115.68833333,ID
"DUNNIGAN #2",1992,"Boise National Forest",Arson,12860.0,43.655,-115.96666667,ID
"GROUSE CREEK",1992,"Boise National Forest",Lightning,4130.0,43.56666667,-115.92666667,ID
"COUNTY LINE",1992,"Boise National Forest",Lightning,8310.0,44.40333333,-115.325,ID
"CUB CREEK",1992,"Boise National Forest",Lightning,2910.0,44.31666667,-115.505,ID
"TIMBER GULCH",1992,"Humboldt National Forest",Lightning,2895.0,41.93333333,-115.68333333,NV
"COFFEE POT",1992,"Humboldt National Forest",Lightning,38200.0,41.81666667,-115.66666667,NV
"CALIFORNIA CREEK",1992,"Humboldt National Forest","Equipment Use",3600.0,41.45,-115.93333333,NV
"DAWLEY CREEK",1992,"Humboldt National Forest",Lightning,2400.0,40.38333333,-115.43333333,NV
CANYON,1992,"Humboldt National Forest",Arson,7180.0,41.75,-117.6,NV
"WINDY RIDGE",1992,"Payette National Forest",Lightning,17500.0,45.01333333,-116.81,ID
"WARM SPRINGS",1992,"Payette National Forest",Lightning,6500.0,45.24666667,-116.17833333,ID
"FRENCH CREEK",1992,"Payette National Forest",Lightning,2590.0,45.41666667,-116.02,ID
"TOMATO POINT",1992,"Payette National Forest","Equipment Use",2365.0,45.43333333,-115.68666667,ID
"PATROL/BEAR CREEK",1992,"Payette National Forest",Lightning,1744.0,45.435,-114.92833333,ID
"CAMP CREEK",1992,"Payette National Forest",Lightning,2110.0,44.88333333,-115.64833333,ID
HORSEFLY,1992,"Salmon-Challis National Forest",Lightning,3340.0,45.36666667,-114.3,ID
LAKE,1992,"Salmon-Challis National Forest",Lightning,1400.0,45.28333333,-114.48333333,ID
TRAPPER,1992,"Sawtooth National Forest",Lightning,9500.0,42.12138889,-114.17555556,ID
WILLOW,1992,"Sawtooth National Forest",Lightning,1781.0,43.62527778,-115.11361111,ID
DEVIL,1992,"Angeles National Forest","Equipment Use",1337.0,34.565,-118.68166667,CA
WILDCAT,1992,"Cleveland National Forest",Miscellaneous,1095.0,32.91666667,-116.87166667,CA
LOVELAND,1992,"Cleveland National Forest",Campfire,1550.0,32.79055556,-116.73666667,CA
CLEVELAND,1992,"Eldorado National Forest",Miscellaneous,24580.0,38.775,-120.45,CA
RAINBOW,1992,"Inyo National Forest",Lightning,8800.0,37.55,-119.095,CA
ABERDEEN,1992,"Inyo National Forest",Lightning,2000.0,36.99,-118.31833333,CA
SECO,1992,"Los Padres National Forest",Miscellaneous,2559.0,36.23222222,-121.45972222,CA
SLICKROCK,1992,"Los Padres National Forest",Miscellaneous,2480.0,35.98083333,-121.35138889,CA
TIMBER,1992,"Modoc National Forest",Lightning,1385.0,41.625,-121.28666667,CA
MARTIN,1992,"Six Rivers National Forest",Arson,1453.0,41.23333333,-123.76666667,CA
CAJON,1992,"San Bernardino National Forest",Children,1596.0,34.25833333,-117.46,CA
CACTUS,1992,"San Bernardino National Forest",Miscellaneous,1150.0,33.66666667,-116.95333333,CA
BANNING,1992,"San Bernardino National Forest",Miscellaneous,1200.0,33.88166667,-116.88333333,CA
CALLBOX,1992,"Sequoia National Forest",Campfire,1195.0,35.56,-118.60166667,CA
BARKER,1992,"Shasta-Trinity National Forest",Arson,5050.0,40.60166667,-123.09833333,CA
FOUNTAIN,1992,"Shasta-Trinity National Forest",Arson,64000.0,40.76166667,-121.98,CA
ITALIAN,1992,"Sierra National Forest","Equipment Use",1422.0,37.16333333,-119.415,CA
RUBY,1992,"Stanislaus National Forest",Smoking,3460.0,38.125,-120.24,CA
GULCH,1992,"Stanislaus National Forest",Miscellaneous,18000.0,38.16833333,-120.60666667,CA
"HORSE BUTTE",1992,"Deschutes National Forest",Children,1580.0,43.97333333,-121.22055556,OR
"SAGE FLAT",1992,"Deschutes National Forest","Debris Burning",1095.0,44.34055556,-121.52527778,OR
"ROBINSON SPRING",1992,"Fremont-Winema National Forest",Lightning,10706.0,42.26,-120.96833333,OR
"FORT SPRING",1992,"Fremont-Winema National Forest",Miscellaneous,3206.0,42.01333333,-120.92833333,OR
ONION,1992,"Fremont-Winema National Forest","Equipment Use",1039.1,42.04166667,-120.73333333,OR
TUCANNON,1992,"Umatilla National Forest",Miscellaneous,3000.0,46.37333333,-117.68166667,WA
"LONE PINE",1992,"Winema National Forest",Children,30809.0,42.595,-121.67333333,OR
"POST OFFICE BAY",1992,"National Forests in Florida",Arson,7400.0,30.06,-85.01,FL
"LIBERTY FARM",1992,"National Forests in Florida",Lightning,1100.0,30.02166667,-84.83833333,FL
"JUNIPER SPRINGS",1992,"National Forests in Florida",Lightning,2015.0,29.21166667,-81.68666667,FL
"GREAT LAKE",1992,"National Forests in North Carolina",Arson,3400.0,34.83333333,-77.08333333,NC
YLE,1993,"Coronado National Forest",Lightning,1062.0,32.59,-110.405,AZ
CSP,1993,"Coronado National Forest",Miscellaneous,1274.0,32.39833333,-110.93166667,AZ
PIETY,1993,"Coronado National Forest",Lightning,4800.0,32.39666667,-110.57166667,AZ
INDIAN,1993,"Gila National Forest",Lightning,1326.0,33.4,-108.08333333,NM
WHISKEY,1993,"Gila National Forest",Lightning,1848.0,33.40166667,-107.86833333,NM
BELL,1993,"Gila National Forest",Lightning,13820.0,33.41666667,-108.16666667,NM
STONE,1993,"Gila National Forest",Lightning,14700.0,33.66666667,-107.78333333,NM
BLACKHAWK,1993,"Gila National Forest",Lightning,4200.0,33.31666667,-107.80166667,NM
BRUSH,1993,"Gila National Forest",Lightning,32000.0,33.08333333,-108.5,NM
CLEAR,1993,"Gila National Forest",Lightning,3200.0,33.355,-108.41333333,NM
STRAW,1993,"Gila National Forest",Lightning,11000.0,33.25166667,-108.38,NM
IRON,1993,"Gila National Forest",Lightning,6400.0,33.39666667,-108.495,NM
CLAYTON,1993,"Gila National Forest",Lightning,3200.0,33.37333333,-108.50333333,NM
POINT,1993,"Kaibab National Forest",Campfire,1762.0,36.44833333,-112.11833333,AZ
BURGETT,1993,"Lincoln National Forest",Campfire,5350.0,32.95166667,-105.61833333,NM
FRIJOLES,1993,"Santa Fe National Forest",Lightning,2626.0,35.90833333,-105.83166667,NM
QUEMADO,1993,"Santa Fe National Forest",Lightning,4300.0,35.96166667,-105.79166667,NM
EDWARDS,1993,"Tonto National Forest",Lightning,3094.0,33.83333333,-111.35,AZ
"QUINN CANYON",1993,"Humboldt National Forest","Equipment Use",1200.0,38.01666667,-115.81666667,NV
"FLAT CANYON",1993,"Manti-Lasal National Forest","Debris Burning",1500.0,39.4,-111.13833333,UT
KINNELOA,1993,"Angeles National Forest",Campfire,5700.0,34.185,-118.08666667,CA
ORTEGA,1993,"Cleveland National Forest",Miscellaneous,21384.0,33.47166667,-117.48833333,CA
EAGLE,1993,"Cleveland National Forest",Campfire,4600.0,32.98333333,-116.73333333,CA
BODEN,1993,"Cleveland National Forest",Miscellaneous,1300.0,33.13333333,-116.86666667,CA
GUEJITO,1993,"Cleveland National Forest",Miscellaneous,20768.0,33.15833333,-116.97333333,CA
MARRE,1993,"Los Padres National Forest",Smoking,43201.0,34.68666667,-119.95833333,CA
WHEEL,1993,"Los Padres National Forest",Arson,1650.0,34.51833333,-119.295,CA
"MILL CREEK",1993,"San Bernardino National Forest","Equipment Use",4680.0,34.08333333,-117.03833333,CA
REPPLIER,1993,"San Bernardino National Forest","Equipment Use",8780.0,33.94,-116.88333333,CA
RUSSIA,1993,"Sequoia National Forest",Arson,1485.0,35.465,-118.76,CA
"BIG MOUNTAIN",1993,"Chattahoochee-Oconee National Forest",Lightning,1050.0,34.94166667,-83.14,GA
"JUNIPER 34",1993,"National Forests in Florida",Lightning,1150.0,29.2,-81.71666667,FL
MARKHAM,1993,"Coronado National Forest",Lightning,35696.0,32.46333333,-110.38666667,AZ
ANN,1994,"Bitterroot National Forest",Lightning,2890.0,46.275,-113.84333333,MT
"MAGRUDER RIDGE 2",1994,"Bitterroot National Forest",Lightning,1963.0,45.73166667,-114.785,ID
MANKATO,1994,"Idaho Panhandle National Forest",Lightning,1381.0,48.84,-117.07666667,WA
SIAM,1994,"Clearwater National Forest",Lightning,1002.0,46.85666667,-114.93833333,ID
FREEZEOUT,1994,"Clearwater National Forest",Lightning,8212.0,46.44666667,-114.95333333,ID
"BIG SAND",1994,"Clearwater National Forest",Lightning,1699.0,46.32333333,-114.50333333,ID
"FERN CREEK",1994,"Clearwater National Forest",Lightning,3078.0,46.43666667,-114.5,ID
"HIDDEN CREEK",1994,"Clearwater National Forest",Lightning,1551.0,46.36,-114.57333333,ID
"CORSON COUNTY",1994,"Custer National Forest",Lightning,1591.0,45.53333333,-101.91666667,SD
"SLIM RIDGE",1994,"Flathead National Forest",Lightning,1564.0,47.85833333,-113.22,MT
"DEAN RIDGE",1994,"Flathead National Forest",Lightning,3507.0,47.95166667,-113.27166667,MT
"HELEN CREEK",1994,"Flathead National Forest",Lightning,8497.0,47.71,-113.33166667,MT
"PIVOT MOUNTAIN",1994,"Flathead National Forest",Lightning,1237.0,47.90666667,-113.20666667,MT
"LITTLE WOLF",1994,"Flathead National Forest",Lightning,10610.0,48.30333333,-114.83333333,MT
"BLACK BUTTE",1994,"Gallatin National Forest",Lightning,12500.0,45.67,-109.99166667,MT
"SMITH CREEK",1994,"Gallatin National Forest",Lightning,1440.0,46.235,-110.39666667,MT
"DECKARD FLATS",1994,"Gallatin National Forest",Lightning,2200.0,45.04,-110.62333333,MT
"NORTH FORK BIG CREEK",1994,"Kootenai National Forest",Lightning,9000.0,48.75333333,-115.48833333,MT
"WEBB KNOB",1994,"Kootenai National Forest",Lightning,3500.0,48.80833333,-115.34166667,MT
"HIGH ONE",1994,"Kootenai National Forest",Lightning,1300.0,48.90833333,-114.92833333,MT
"17 MILE",1994,"Kootenai National Forest",Smoking,1715.0,48.64166667,-115.74333333,MT
"UPPER FOWLER",1994,"Kootenai National Forest",Lightning,2470.0,48.78166667,-115.58833333,MT
"SMITH PEAK",1994,"Kootenai National Forest",Lightning,1522.0,48.42833333,-116.11833333,ID
"FISH FRY",1994,"Kootenai National Forest",Lightning,1420.0,48.86833333,-115.565,MT
ROBERTS,1994,"Kootenai National Forest",Lightning,1000.0,48.48,-116.07833333,ID
STUDEBAKER,1994,"Kootenai National Forest",Lightning,1592.0,48.575,-115.77833333,MT
PULPIT,1994,"Kootenai National Forest",Lightning,2023.0,48.525,-115.78,MT
"SCENERY 1",1994,"Kootenai National Forest",Lightning,3245.0,48.43333333,-115.66666667,MT
"SCENERY 2",1994,"Kootenai National Forest",Lightning,1245.0,48.43333333,-115.71666667,MT
"SHEEP RANGE 3",1994,"Kootenai National Forest",Lightning,5897.0,48.48833333,-115.71333333,MT
"WINDY POINT",1994,"Lewis and Clark National Forest",Miscellaneous,4217.0,46.70666667,-109.43388889,MT
"HENRY PEAK",1994,"Lolo National Forest",Lightning,8203.0,47.425,-114.76,MT
"RAPID RIVER",1994,"Nezperce National Forest",Lightning,3430.0,45.28666667,-116.54,ID
"RHODA POINT",1994,"Nezperce National Forest",Lightning,1638.0,46.295,-115.08333333,ID
"LIZARD PEAK",1994,"Nezperce National Forest",Lightning,1109.0,46.22666667,-115.13,ID
PETERSON-ELLIOTT,1994,"Medicine Bow-Routt National Forest",Lightning,7150.0,43.86666667,-104.69166667,WY
HOURGLASS,1994,"Arapaho-Roosevelt National Forest",Lightning,1221.0,40.05,-105.05,CO
"UTE CREEK",1994,"White River National Forest",Lightning,3190.0,39.965,-107.475,CO
"S CANYON",1994,"Apache-Sitgreaves National Forest",Lightning,3294.0,33.6,-109.08666667,AZ
PINNACLE,1994,"Cibola National Forest",Lightning,6000.0,33.81833333,-107.59833333,NM
BULL,1994,"Cibola National Forest",Lightning,2000.0,33.67333333,-107.41,NM
POT,1994,"Cibola National Forest",Lightning,22200.0,33.70166667,-107.46166667,NM
VEGA,1994,"Cibola National Forest",Miscellaneous,1000.0,34.25333333,-105.67333333,NM
POGUE,1994,"Cibola National Forest",Miscellaneous,6060.0,36.35833333,-103.26166667,NM
LOST,1994,"Coconino National Forest",Lightning,1861.0,34.94166667,-111.89166667,AZ
RATTLESNAKE,1994,"Coronado National Forest",Lightning,27720.0,31.90666667,-109.30333333,AZ
CLOVERDALE,1994,"Coronado National Forest",Lightning,2800.0,31.46333333,-108.92833333,NM
COTTONWOOD,1994,"Coronado National Forest",Lightning,11809.0,32.93833333,-110.23,AZ
REDINGTON,1994,"Coronado National Forest",Lightning,5153.0,32.26833333,-110.45333333,AZ
RINCON,1994,"Coronado National Forest",Lightning,14590.0,32.19,-110.49833333,AZ
BEAR,1994,"Gila National Forest",Lightning,1350.0,33.50833333,-108.04166667,NM
MULE,1994,"Gila National Forest",Lightning,5500.0,33.02333333,-109.03666667,NM
AEROPLANE,1994,"Gila National Forest",Lightning,1700.0,33.37333333,-108.435,NM
PIGEON,1994,"Gila National Forest",Lightning,6250.0,33.09833333,-107.90166667,NM
GOAT,1994,"Gila National Forest",Lightning,2000.0,32.98333333,-108.31166667,NM
GLASS,1994,"Gila National Forest",Lightning,2000.0,32.93166667,-108.22666667,NM
READING,1994,"Gila National Forest",Lightning,1000.0,32.98333333,-108.32833333,NM
PATOS,1994,"Lincoln National Forest",Lightning,5133.0,33.74333333,-105.68333333,NM
PONCHO,1994,"Lincoln National Forest",Lightning,1890.0,33.58166667,-105.26666667,NM
BRIDGE,1994,"Lincoln National Forest",Lightning,4966.0,32.69666667,-105.755,NM
ROAD,1994,"Lincoln National Forest",Lightning,1000.0,32.24666667,-104.87666667,NM
GAP,1994,"Lincoln National Forest",Lightning,2500.0,32.09833333,-104.825,NM
JUNIPER,1994,"Prescott National Forest",Lightning,2798.0,34.95833333,-112.935,AZ
PECK,1994,"Prescott National Forest",Lightning,4321.0,34.28166667,-112.315,AZ
CASTLE,1994,"Prescott National Forest",Lightning,4763.0,34.22333333,-112.21166667,AZ
MOCKINGBIRD,1994,"Prescott National Forest",Lightning,1472.0,34.24833333,-111.835,AZ
CAMP,1994,"Tonto National Forest",Miscellaneous,1200.0,33.77166667,-111.68833333,AZ
TANGLE,1994,"Tonto National Forest",Lightning,1850.0,34.16666667,-111.78833333,AZ
ARMOR,1994,"Tonto National Forest",Lightning,5760.0,33.77166667,-111.0,AZ
BEE,1994,"Tonto National Forest",Lightning,2280.0,34.07166667,-111.3,AZ
"STAR GULCH",1994,"Boise National Forest",Arson,30655.0,43.695,-115.93333333,ID
"NORTHFORK #1",1994,"Boise National Forest",Lightning,1100.0,43.77833333,-115.56166667,ID
"BANNOCK CREEK",1994,"Boise National Forest",Lightning,2000.0,43.78166667,-115.73,ID
"RABBIT CREEK #1",1994,"Boise National Forest",Lightning,146400.0,43.78166667,-115.62833333,ID
"BEAR RIVER",1994,"Boise National Forest",Lightning,4600.0,43.90166667,-112.47,ID
THUNDERBOLT,1994,"Boise National Forest",Lightning,13400.0,44.72333333,-115.65166667,ID
ROW,1994,"Bridger-Teton National Forest",Lightning,1077.0,43.67,-110.65833333,WY
"BROWN CANYON",1994,"Caribou National Forest",Lightning,2000.0,42.88333333,-111.265,ID
"PIONEER CREEK",1994,"Challis National Forest",Lightning,7848.0,44.51833333,-114.85166667,ID
"NORTON RIDGE",1994,"Challis National Forest",Lightning,1184.0,45.025,-114.93833333,ID
"BLACK WILLOW",1994,"Fishlake National Forest",Lightning,12031.0,39.43333333,-112.21666667,UT
PRUNTY,1994,"Humboldt National Forest",Lightning,3200.0,41.71666667,-115.51666667,NV
"BIG TABLE",1994,"Humboldt National Forest",Lightning,2517.0,41.88333333,-115.66666667,NV
"WILLOW BASIN",1994,"Manti-Lasal National Forest",Smoking,4200.0,38.43333333,-109.08333333,UT
"CORRAL CREEK",1994,"Payette National Forest",Lightning,115659.0,45.115,-116.17833333,ID
"BRUSH LAKE",1994,"Payette National Forest",Lightning,8300.0,45.04166667,-115.97333333,ID
BLACKWELL,1994,"Payette National Forest",Lightning,55890.0,44.95666667,-116.005,ID
TAG,1994,"Payette National Forest",Lightning,4150.0,45.41666667,-114.88333333,ID
"BIG BIRD",1994,"Payette National Forest",Lightning,1886.0,45.29,-115.42,ID
CORNISH,1994,"Payette National Forest",Lightning,12568.0,45.305,-115.42,ID
BANTY,1994,"Payette National Forest",Lightning,3549.0,45.27666667,-115.44,ID
"PORPHYRY SOUTH",1994,"Payette National Forest",Lightning,84677.0,45.295,-115.48166667,ID
POWERLINE,1994,"Salmon-Challis National Forest",Lightning,1090.0,45.165,-114.25,ID
COTTONWOOD,1994,"Sawtooth National Forest",Lightning,4670.0,42.30888889,-114.47,ID
LAKE,1994,"Caribou-Targhee National Forest",Lightning,1918.0,43.43833333,-111.12333333,ID
"TROJAN II",1994,"Uinta National Forest",Miscellaneous,2950.0,40.075,-111.575,UT
"DRY CANYON 2",1994,"Wasatch-Cache-Uinta National Forest",Lightning,10500.0,41.61666667,-111.35666667,UT
"EDGAR CANYON",1994,"Wasatch-Cache-Uinta National Forest",Lightning,3640.0,41.83333333,-111.43333333,UT
SCOUT,1994,"Angeles National Forest",Campfire,3020.0,34.41666667,-117.635,CA
SHOOTING,1994,"Angeles National Forest",Miscellaneous,3490.1,34.44333333,-118.08,CA
"AGUA DULCE",1994,"Angeles National Forest",Miscellaneous,1021.0,34.45666667,-118.33,CA
SECOND,1994,"Cleveland National Forest",Miscellaneous,5120.0,33.15833333,-116.86666667,CA
BEAR,1994,"Klamath National Forest",Lightning,1582.0,41.72333333,-123.545,CA
HARRINGTON,1994,"Klamath National Forest",Lightning,1203.0,41.66666667,-123.66333333,CA
"JACK #1",1994,"Klamath National Forest",Lightning,28953.0,41.635,-123.63833333,CA
SPECIMEN,1994,"Klamath National Forest",Lightning,7015.0,41.365,-123.15,CA
BARKLEY,1994,"Lassen National Forest",Lightning,44683.0,40.135,-121.67833333,CA
SUGARFOOT,1994,"Mendocino National Forest",Smoking,2778.0,39.88,-122.795,CA
DOYLE,1994,"Plumas National Forest","Debris Burning",2000.0,40.00694444,-120.145,CA
DEVILS,1994,"San Bernardino National Forest",Miscellaneous,12303.0,34.30166667,-117.12833333,CA
WILLOW,1994,"San Bernardino National Forest",Lightning,1200.0,33.56,-117.55666667,CA
PALM,1994,"San Bernardino National Forest",Lightning,20901.0,33.63666667,-116.50833333,CA
FAIRVIEW,1994,"San Bernardino National Forest","Debris Burning",6420.0,33.85,-116.68333333,CA
"HIGHWAY 74",1994,"San Bernardino National Forest",Lightning,1150.0,33.55833333,-116.57,CA
PEAK,1994,"Sequoia National Forest",Lightning,2926.0,35.50333333,-118.70333333,CA
"LUCAS #4",1994,"Sequoia National Forest",Lightning,5179.0,35.455,-118.71333333,CA
"BIG CREEK",1994,"Sierra National Forest",Miscellaneous,5250.0,37.20833333,-119.295,CA
CREEK,1994,"Stanislaus National Forest",Smoking,1409.0,38.06666667,-120.35,CA
COTTONWOOD,1994,"Tahoe National Forest",Arson,46800.0,39.54166667,-120.31666667,CA
CRYSTAL,1994,"Tahoe National Forest","Equipment Use",7310.0,39.50166667,-120.06666667,CA
HIRSCHDALE,1994,"Tahoe National Forest","Equipment Use",1300.0,39.38166667,-120.08166667,CA
"FOUR CORNERS",1994,"Deschutes National Forest",Lightning,1525.0,43.8175,-121.76361111,OR
"JORDAN SPRINGS",1994,"Malheur National Forest",Lightning,5757.2,43.87,-118.75666667,OR
"INDIAN ROCK",1994,"Malheur National Forest",Lightning,1440.0,44.74166667,-118.705,OR
REED,1994,"Malheur National Forest",Campfire,2440.0,44.705,-118.63333333,OR
POWDER,1994,"Malheur National Forest",Lightning,5780.0,44.12333333,-118.30833333,OR
BANNON,1994,"Okanogan National Forest",Children,1360.0,48.64333333,-119.25,WA
THUNDER,1994,"Okanogan National Forest",Lightning,8900.0,48.78166667,-119.98166667,WA
"WAR CREEK",1994,"Okanogan National Forest",Lightning,2514.0,48.35833333,-120.545,WA
WHITEFACE,1994,"Okanogan National Forest",Lightning,4380.0,48.665,-120.37666667,WA
MENDENHALL,1994,"Siskiyou National Forest",Lightning,6998.0,42.13666667,-123.725,OR
BRACKEN,1994,"Umatilla National Forest",Lightning,2580.0,46.25833333,-117.30833333,WA
BOUNDARY,1994,"Umatilla National Forest",Lightning,11081.0,45.03333333,-118.525,OR
ALDER,1994,"Wallowa-Whitman National Forest",Lightning,5700.0,45.69833333,-117.035,OR
"THORN CREEK",1994,"Wallowa-Whitman National Forest",Lightning,1210.0,45.74333333,-116.77,OR
FREEZEOUT,1994,"Wallowa-Whitman National Forest",Lightning,7449.0,45.375,-116.73,OR
"TWIN LAKES",1994,"Wallowa-Whitman National Forest",Lightning,22330.0,42.08666667,-117.05333333,OR
GRANITE,1994,"Wallowa-Whitman National Forest",Lightning,7517.0,45.29,-116.64833333,ID
"FOX POINT",1994,"Wallowa-Whitman National Forest",Lightning,2075.0,45.42,-117.55166667,OR
"TYEE CREEK",1994,"Okanogan-Wenatchee National Forest",Lightning,140000.0,47.83333333,-120.33333333,WA
"ROUND MTN",1994,"Okanogan-Wenatchee National Forest",Lightning,3241.0,47.79,-120.805,WA
"HATCHERY CREEK",1994,"Okanogan-Wenatchee National Forest",Lightning,12060.0,47.65166667,-120.765,WA
RAT,1994,"Okanogan-Wenatchee National Forest",Smoking,29435.0,47.54666667,-120.74333333,WA
QUICK,1994,"Winema National Forest",Arson,1457.0,42.63833333,-121.59333333,OR
"COPPER BUTTE",1994,"Colville National Forest",Lightning,10580.0,48.70444444,-118.47333333,WA
"CHEROKEE NORTH",1994,"Cherokee National Forest",Arson,1285.0,35.96666667,-82.89166667,TN
"FISH DAY",1994,"National Forests in North Carolina",Arson,24600.0,34.88333333,-77.11666667,NC
MILLER,1994,"Coronado National Forest",Campfire,2950.0,31.39666667,-110.26,AZ
"GOOD FRIDAY",1995,"Nebraska National Forest",Lightning,6885.0,41.87944444,-100.48416667,NE
HETT,1995,"Apache-Sitgreaves National Forest",Lightning,19725.0,33.545,-109.14,AZ
WS,1995,"Apache-Sitgreaves National Forest",Miscellaneous,2886.0,33.535,-109.05333333,AZ
ED,1995,"Apache-Sitgreaves National Forest",Lightning,3750.0,33.445,-109.28,AZ
MILLIGAN,1995,"Cibola National Forest",Lightning,2100.0,33.71666667,-107.44333333,NM
PLANT,1995,"Coconino National Forest",Lightning,1200.0,34.33333333,-111.66666667,AZ
SHOVEL,1995,"Coronado National Forest",Lightning,1275.0,32.42833333,-110.81,AZ
ALBION,1995,"Gila National Forest",Lightning,1750.0,33.46666667,-107.945,NM
W/S,1995,"Gila National Forest",Miscellaneous,3038.0,33.41166667,-108.60666667,NM
SOUTH,1995,"Gila National Forest",Lightning,10000.0,33.39833333,-108.13333333,NM
BONNER,1995,"Gila National Forest",Lightning,29000.0,33.185,-107.85166667,NM
SPRITE,1995,"Gila National Forest",Lightning,7691.0,33.25833333,-108.56833333,NM
H.B.,1995,"Gila National Forest",Campfire,13000.0,33.68,-108.54666667,NM
TORRES,1995,"Gila National Forest",Lightning,3000.0,32.95833333,-108.27333333,NM
Q-BALL,1995,"Gila National Forest",Lightning,4300.0,32.97333333,-108.30666667,NM
CHUCK,1995,"Gila National Forest",Lightning,1600.0,34.105,-108.42166667,NM
DYNAMITE,1995,"Tonto National Forest",Miscellaneous,1411.0,33.76666667,-111.7,AZ
BASIN,1995,"Tonto National Forest",Lightning,22092.0,33.95,-111.58333333,AZ
SQUAW,1995,"Tonto National Forest",Lightning,7000.0,34.15,-112.02,AZ
"( #3) SALT",1995,"Tonto National Forest",Miscellaneous,1400.0,33.515,-110.86666667,AZ
COMET,1995,"Tonto National Forest",Miscellaneous,1275.0,33.31694444,-111.26722222,AZ
GERONIMO,1995,"Tonto National Forest",Arson,2200.0,33.39777778,-111.43666667,AZ
RIVER,1995,"Tonto National Forest",Miscellaneous,9500.0,33.58333333,-111.585,AZ
MEDICINE,1995,"Tonto National Forest",Lightning,2500.0,33.76277778,-110.78111111,AZ
LAKES,1995,"Boise National Forest",Lightning,1000.0,43.655,-115.49833333,ID
"BATTLE CREEK",1995,"Humboldt National Forest",Lightning,11034.0,40.51,-115.36833333,NV
WATERFALL,1995,"Salmon-Challis National Forest",Lightning,2200.0,45.11833333,-114.71333333,ID
WILLOW,1995,"Sawtooth National Forest",Arson,2950.0,42.06361111,-114.13638889,ID
"WEST MOUNTAIN",1995,"Uinta National Forest",Lightning,1200.0,40.125,-111.81166667,UT
TERRA,1995,"Wasatch-Cache-Uinta National Forest",Miscellaneous,7063.0,40.21666667,-112.71666667,UT
"PERRY CANYON",1995,"Wasatch-Cache-Uinta National Forest",Lightning,3090.0,41.43666667,-112.02,UT
"FREEWAY II",1995,"Angeles National Forest",Arson,1370.0,34.45666667,-118.34833333,CA
WARNER,1995,"Cleveland National Forest",Arson,2388.0,33.335,-116.715,CA
BUTTERFIELD,1995,"Cleveland National Forest",Arson,7083.0,32.975,-116.44166667,CA
"EL MONTE",1995,"Cleveland National Forest",Smoking,8100.0,32.88833333,-116.82666667,CA
POLE,1995,"Inyo National Forest",Miscellaneous,5550.0,37.41333333,-118.6,CA
PONY,1995,"Klamath National Forest",Campfire,2095.0,41.63666667,-123.60166667,CA
ROUSE,1995,"San Bernardino National Forest",Campfire,1039.0,34.28666667,-117.145,CA
CROWDER,1995,"San Bernardino National Forest","Equipment Use",1000.0,34.37333333,-117.47833333,CA
VERBENIA,1995,"San Bernardino National Forest","Equipment Use",23455.0,33.95166667,-116.69166667,CA
BLUFF,1995,"San Bernardino National Forest",Campfire,2624.0,33.99666667,-116.91833333,CA
APACHE,1995,"San Bernardino National Forest",Arson,3500.0,33.925,-116.79666667,CA
ROCKY,1995,"Sequoia National Forest",Miscellaneous,1704.0,35.48,-118.74833333,CA
OWEN,1995,"Fremont-Winema National Forest",Lightning,1176.0,42.36472222,-120.81583333,OR
"MILL CR. PNF 848",1995,"Ochoco National Forest",Lightning,1231.0,44.45611111,-120.51472222,OR
SWITCHBACK,1995,"Winema National Forest",Lightning,1008.0,42.41166667,-121.54166667,OR
"TERRAPIN CREEK",1995,"National Forests in Alabama",Arson,3321.0,33.86916667,-85.42333333,AL
STEELTRAP,1995,"Daniel Boone National Forest",Arson,1910.0,37.38333333,-83.57166667,KY
"MIDDLE CREEK",1995,"National Forests in Mississippi",Miscellaneous,1076.0,31.09,-89.13,MS
"LICK HOLLOW",1995,"Ozark-St. Francis National Forest",Arson,2770.0,35.61666667,-94.5,OK
"YOUNG HOLLOW",1995,"Mark Twain National Forest",Arson,1200.0,36.91861111,-91.22944444,MO
WINCHELL,1995,"Superior National Forest",Lightning,1269.0,47.98666667,-90.61833333,MN
SWEDE,1995,"Superior National Forest",Lightning,1010.0,47.93666667,-90.50166667,MN
"SAG CORRIDOR",1995,"Superior National Forest",Campfire,12600.0,48.00666667,-90.77333333,MN
"LITTLE GABBRO",1995,"Superior National Forest",Lightning,3048.0,47.85666667,-91.605,MN
POT,1996,"Coconino National Forest",Lightning,7000.0,34.57166667,-111.40166667,AZ
"CLARK PEAK",1996,"Coronado National Forest",Miscellaneous,6716.0,32.69833333,-109.95666667,AZ
"GRAVEL PIT",1996,"Nebraska National Forest",Lightning,2266.0,43.03333333,-103.38333333,SD
"HAY BALE",1996,"Nebraska National Forest",Lightning,1500.0,43.25833333,-104.0,SD
HORSESHOE,1996,"Coconino National Forest",Miscellaneous,8650.0,35.42,-111.78166667,AZ
PINATOSA,1996,"Cibola National Forest",Miscellaneous,7100.0,34.20833333,-105.77666667,NM
"SECOND STREET",1996,"Pike San Isabel National Forest and Grasslands",Miscellaneous,1267.0,37.13333333,-101.66666667,KS
JOHNS,1995,"George Washington-Jefferson",Arson,1354.0,37.50333333,-80.25,VA
COVE,1995,"George Washington-Jefferson",Smoking,2151.0,37.39166667,-80.17,VA
SOUTH,1995,"George Washington-Jefferson",Arson,1678.0,37.61666667,-80.05833333,VA
DAMON/LONG,1996,"Modoc National Forest",Lightning,23398.0,41.565,-121.24666667,CA
"SUN COMPLEX",1996,"Humboldt-Toiyabe National Forest",Lightning,1000.0,36.08,-115.645,NV
LONE,1996,"Tonto National Forest",Campfire,58960.0,33.70666667,-111.33666667,AZ
COTTONWOOD,1996,"Apache-Sitgreaves National Forest",Lightning,1484.0,34.245,-110.31333333,AZ
KUDZU,1996,"National Forests in Mississippi",Arson,1130.0,34.75833333,-89.33,MS
JUNIOR,1996,"National Forests in Mississippi",Miscellaneous,1092.0,34.57833333,-89.41,MS
TELEPHONE,1996,"Grand Mesa, Uncompahgre and Gunnison National Forests",Lightning,1135.0,38.29833333,-108.36666667,CO
BELLI,1996,"Humboldt-Toiyabe National Forest",Arson,6700.0,39.48333333,-119.98166667,NV
FALCONBERRY,1996,"Salmon-Challis National Forest",Lightning,2580.0,44.72333333,-114.79,ID
TANK,1996,"Uinta National Forest",Children,3000.0,40.30666667,-111.66833333,UT
BLACKERBY,1996,"Nezperce National Forest",Miscellaneous,1100.0,45.88833333,-116.03,ID
HORSE,1996,"Modoc National Forest",Miscellaneous,2465.0,41.90194444,-121.31111111,CA
"DALTON 3",1996,"Modoc National Forest",Lightning,3032.0,41.73861111,-121.07333333,CA
"HENRY'S",1996,"Medicine Bow-Routt National Forest",Lightning,9500.0,43.17833333,-105.74833333,WY
"MURPHY RIDGE",1996,"Medicine Bow-Routt National Forest",Lightning,3776.0,42.185,-105.41,WY
"BEAR CREEK",1996,"Medicine Bow-Routt National Forest",Lightning,3718.0,42.19833333,-105.46666667,WY
MAGOTSU,1996,"Dixie National Forest",Lightning,1200.0,37.45333333,-113.67,UT
RACER,1996,"Dixie National Forest",Lightning,7376.0,37.45333333,-113.78,UT
DANO,1996,"Shoshone National Forest",Lightning,1906.0,44.80166667,-109.34333333,WY
STOCKWELL,1996,"Bighorn National Forest",Lightning,3400.0,44.54944444,-107.06027778,WY
STODDARD,1996,"Salmon-Challis National Forest",Lightning,2500.0,45.25,-114.71166667,ID
HARRINGTON,1996,"Salmon-Challis National Forest",Lightning,1340.0,45.50333333,-114.91,ID
QUINN,1996,"Humboldt National Forest",Lightning,58307.0,41.97,-117.565,NV
"ROAD CANYON",1996,"Humboldt National Forest",Lightning,1326.0,40.335,-115.48,NV
SMILEY,1996,"Humboldt National Forest",Lightning,4010.3,41.01833333,-115.16833333,NV
"TOM BASIN",1996,"Humboldt National Forest","Equipment Use",1470.0,41.605,-117.62333333,NV
"RUBY LAKE",1996,"Humboldt National Forest","Debris Burning",1917.0,40.20333333,-115.5,NV
"JEFFERSON 0482",1996,"Deschutes National Forest",Smoking,3648.0,44.60055556,-121.68833333,OR
LYNN,1996,"Sawtooth National Forest",Lightning,1775.0,41.92333333,-113.68666667,UT
BRIDGE,1996,"Salmon-Challis National Forest",Lightning,20000.0,44.67333333,-114.68666667,ID
"SAGE FLAT",1996,"Inyo National Forest","Equipment Use",2091.0,36.22166667,-118.045,CA
DISAPPOINTMENT,1996,"San Juan National Forest",Lightning,3840.0,37.81388889,-108.5725,CO
"GOAT MOUNTAIN",1996,"Bitterroot National Forest",Lightning,1000.0,45.58333333,-114.82166667,ID
"LIME KILN # 3",1996,"Caribou National Forest",Lightning,1069.0,42.30333333,-112.34,ID
"BIG BRUIN/PNF",1996,"Payette National Forest",Lightning,8100.0,45.445,-115.08333333,ID
COW,1996,"Tonto National Forest",Lightning,1008.0,34.1,-112.0,AZ
"ASPEN HOLLOW",1996,"Bridger-Teton National Forest",Lightning,2780.0,43.11805556,-110.80861111,WY
FAYETTE,1996,"Bridger-Teton National Forest",Miscellaneous,4500.0,42.91666667,-109.79166667,WY
"SWET CREEK",1996,"Bitterroot National Forest",Lightning,38710.0,45.57,-114.75166667,ID
"MAJOR 1",1996,"National Forests in Florida",Miscellaneous,3149.0,29.24166667,-81.66666667,FL
"EVAN'S WEST 1321",1996,"Deschutes National Forest",Lightning,4320.0,43.84111111,-121.13916667,OR
"BRIDGER KNOLL",1996,"Kaibab National Forest",Lightning,35907.0,36.455,-112.43833333,AZ
JUMP,1996,"Kaibab National Forest",Lightning,17688.0,36.58,-112.56666667,AZ
BULL,1996,"Umatilla National Forest",Lightning,8332.0,44.86833333,-118.68333333,OR
SUMMIT,1996,"Umatilla National Forest",Lightning,37835.0,44.77666667,-118.64166667,OR
TOWER,1996,"Umatilla National Forest",Lightning,50633.0,45.075,-118.56666667,OR
"WHEELER POINT",1996,"Umatilla National Forest",Miscellaneous,22000.0,44.96,-119.87666667,OR
CHARLTON,1996,"Willamette National Forest",Lightning,10400.0,43.79666667,-122.035,OR
"WARRIORS FACE",1996,"Bitterroot National Forest",Lightning,4104.0,45.71166667,-114.67166667,ID
BOREL,1996,"Sequoia National Forest",Miscellaneous,2650.0,35.57833333,-118.55666667,CA
"SOUTH TEMPERANCE",1996,"Superior National Forest",Lightning,4130.0,47.935,-90.775,MN
"WHITEFEATHER LAKE",1996,"Superior National Forest",Lightning,4750.0,48.15,-91.98666667,MN
COLBERT,1996,"Custer National Forest",Lightning,1200.0,45.695,-106.23,MT
HOCKDERFFER,1996,"Coconino National Forest",Lightning,16400.0,35.38,-111.75333333,AZ
"SLOANS RIDGE",1996,"Wallowa-Whitman National Forest",Lightning,10137.0,44.90027778,-118.29388889,OR
"ELBOW BASIN",1996,"Okanogan National Forest",Lightning,3650.0,48.93,-120.83333333,WA
"POLE CREEK",1996,"Fishlake National Forest",Lightning,10405.2,38.185,-112.38666667,UT
CANYON,1996,"Sequoia National Forest",Miscellaneous,3328.0,35.45333333,-118.78,CA
SIERRA,1996,"Sequoia National Forest",Miscellaneous,1092.0,35.77,-118.42,CA
"SHEPARD MTN",1996,"Custer National Forest",Lightning,14890.0,45.17833333,-109.655,MT
CANYON,1996,"Pike San Isabel National Forest",Campfire,9523.0,37.62166667,-103.62166667,CO
"BUFFALO CREEK",1996,"Pike San Isabel National Forest",Campfire,11875.0,39.33833333,-105.33833333,CO
COYOTE,1996,"Lewis and Clark National Forest","Equipment Use",3500.0,46.87333333,-110.84833333,MT
"LITTLE CABIN 0745",1996,"Ochoco National Forest",Miscellaneous,2438.0,44.53694444,-121.34805556,OR
"ANTELOPE CREEK",1996,"Deerlodge National Forest","Equipment Use",2100.0,45.735,-111.89666667,MT
MADDALENA,1996,"Plumas National Forest","Equipment Use",4660.0,39.83666667,-120.285,CA
WILDCAT,1996,"Malheur National Forest",Lightning,10146.2,44.295,-118.74166667,OR
DOME,1996,"Santa Fe National Forest",Campfire,16575.0,35.77666667,-106.415,NM
"EIGHTH STREET",1996,"Boise National Forest","Equipment Use",15263.0,43.64277778,-116.185,ID
"SHEEP CREEK",1996,"Wallowa-Whitman National Forest",Lightning,16100.0,45.43666667,-116.5225,ID
"SALT CREEK",1996,"Wallowa-Whitman National Forest",Lightning,52600.0,45.56555556,-116.57194444,OR
DAM,1996,"Wallowa-Whitman National Forest",Lightning,4800.0,45.26,-116.6875,ID
COOKS,1996,"Plumas National Forest","Equipment Use",1260.0,40.2,-120.84833333,CA
LOOKOUT,1996,"Gila National Forest",Lightning,17000.0,33.215,-108.62,NM
LANGSTROTH,1996,"Gila National Forest",Lightning,6500.0,33.27333333,-108.495,NM
ACKERSON,1996,"Stanislaus National Forest",Lightning,12371.0,37.855,-119.82666667,CA
CHISHOLM,1996,"San Bernardino National Forest","Equipment Use",1424.0,33.98833333,-116.93833333,CA
"OAK FLAT",1996,"Sequoia National Forest",Arson,1000.0,36.015,-118.77833333,CA
"CHALOLO #1",1996,"Sequoia National Forest",Arson,2850.0,36.04333333,-118.67,CA
"COYOTE PNF",1996,"Gallatin National Forest",Lightning,4283.0,44.99333333,-110.43,MT
"UPLAND ISLAND",1996,"National Forests in Texas",Arson,3936.0,31.105,-94.35833333,TX
FORK,1996,"Mendocino National Forest",Arson,83323.0,39.25833333,-122.91666667,CA
MOOLACK,1996,"Willamette National Forest",Lightning,1335.0,43.875,-122.09333333,OR
BICHOTA,1996,"Angeles National Forest",Campfire,1800.0,34.26333333,-117.83666667,CA
RESERVOIR,1996,"Angeles National Forest",Arson,1428.0,34.18,-117.88166667,CA
ROCK,1996,"Shasta-Trinity National Forest",Lightning,2523.0,40.185,-122.98666667,CA
SPRING,1996,"Umpqua National Forest",Lightning,16358.0,43.035,-122.535,OR
STUMPFIELD,1996,"Sierra National Forest",Miscellaneous,2770.0,37.42833333,-119.84333333,CA
"TRIMMER 2",1996,"Sierra National Forest",Arson,5607.0,36.87,-119.31333333,CA
"WHISKEY CREEK",1996,"Fishlake National Forest",Lightning,1600.0,39.3,-112.33333333,UT
"WHISKEY II",1996,"Fishlake National Forest",Lightning,1200.0,39.3,-112.36666667,UT
"SORENSON RANCH",1996,"Fishlake National Forest",Lightning,1428.3,38.65833333,-112.53333333,UT
ADELAIDE,1996,"Fishlake National Forest",Lightning,15706.4,38.75,-112.35,UT
ALDERRIDGE,1996,"Fremont-Winema National Forest",Lightning,3570.0,42.96833333,-121.14388889,OR
GRAND,1996,"Los Padres National Forest",Miscellaneous,10925.0,34.45944444,-118.9375,CA
PONY,1996,"San Bernardino National Forest","Equipment Use",1067.0,33.58,-116.95333333,CA
"BEE #2",1996,"San Bernardino National Forest",Miscellaneous,9620.0,33.735,-116.835,CA
DIEGO,1996,"San Bernardino National Forest",Arson,1057.0,33.59333333,-116.80166667,CA
"RANCH 3",1996,"Angeles National Forest","Equipment Use",1000.0,34.65333333,-118.34833333,CA
MARPLE,1996,"Angeles National Forest",Arson,22000.0,34.525,-118.64333333,CA
WASIOJA,1996,"Los Padres National Forest","Equipment Use",2830.0,34.92305556,-119.81166667,CA
GORGE,1996,"Los Padres National Forest",Lightning,1800.0,34.59,-118.77166667,CA
"HIGHWAY 58",1996,"Los Padres National Forest","Equipment Use",106668.0,35.42,-120.42277778,CA
HONDO,1996,"Carson National Forest","Debris Burning",7525.0,36.63166667,-105.66666667,NM
WILD,1996,"Los Padres National Forest",Arson,25620.0,35.96833333,-121.48333333,CA
SUR,1996,"Los Padres National Forest",Miscellaneous,4410.0,36.24833333,-121.74833333,CA
DRIP_2,1996,"Cleveland National Forest",Arson,1082.0,33.46666667,-116.97166667,CA
"BOY RIVER",1996,"Chippewa National Forest",Arson,1242.0,47.2,-94.13333333,MN
PECHANGA,1996,"Cleveland National Forest",Arson,1336.0,33.44666667,-117.08,CA
MURRELL,1997,"Francis Marion-Sumter National Forest",Miscellaneous,2765.0,33.08333333,-79.58333333,SC
THEDFORD,1997,"Nebraska National Forest",Smoking,9000.0,42.0,-100.5,NE
LOGAN,1997,"Los Padres National Forest",Miscellaneous,49490.0,35.14166667,-120.16833333,CA
COLT,1997,"Salmon-Challis National Forest",Lightning,1888.0,45.42166667,-114.68333333,ID
CHOKE,1997,"Sequoia National Forest",Lightning,4100.0,36.825,-118.76166667,CA
STAR,1997,"Umatilla National Forest",Miscellaneous,1800.0,46.23666667,-117.36333333,WA
"030 KISATCHIE HILLS",1997,"Kisatchie National Forest",Arson,3134.0,31.5,-93.0,LA
COFFEE,1997,"Sequoia National Forest",Miscellaneous,2470.0,36.15833333,-118.74833333,CA
ROCKY,1997,"Gila National Forest",Lightning,4000.0,33.115,-107.99833333,NM
LILLY,1997,"Gila National Forest",Lightning,25000.0,33.275,-108.36833333,NM
MAVERICK,1997,"Coronado National Forest",Miscellaneous,1000.0,31.52166667,-109.03166667,NM
BAKER,1997,"Cleveland National Forest","Debris Burning",6317.0,33.76833333,-117.66,CA
PAUBA,1997,"San Bernardino National Forest",Campfire,7231.0,33.495,-117.00666667,CA
JACKS,1997,"Sequoia National Forest",Lightning,5693.0,35.61,-118.11666667,CA
"BILOXI FORK",1997,"National Forests in Mississippi",Arson,1350.0,30.5,-89.05333333,MS
MILL,1997,"San Bernardino National Forest",Miscellaneous,1336.0,34.17166667,-117.145,CA
"CANYON 2",1997,"Angeles National Forest","Equipment Use",5200.0,34.16333333,-117.905,CA
NARROWS,1997,"Angeles National Forest","Debris Burning",18186.0,34.28333333,-117.75,CA
POPPET,1997,"San Bernardino National Forest",Arson,1500.0,33.88166667,-116.85,CA
HEMLOCK,1997,"San Bernardino National Forest",Miscellaneous,3737.0,34.15666667,-117.23333333,CA
HOLIDAY,1998,"National Forests in Florida",Arson,24602.0,30.165,-84.51166667,FL
OAK,1998,"National Forests in Florida",Arson,20100.0,30.34,-82.50666667,FL
"BENNIE PEER",1998,"Custer National Forest","Debris Burning",1500.0,47.43833333,-103.82333333,ND
"045 RABBIT",1998,"Kisatchie National Forest",Arson,1075.0,31.85805556,-92.75972222,LA
OSO,1998,"Santa Fe National Forest",Arson,5185.0,36.02333333,-106.30333333,NM
"TOLL ROAD",1998,"Boise National Forest",Miscellaneous,1110.0,43.59,-115.985,ID
"WEST MOUNTAIN II",1998,"Uinta National Forest",Smoking,1316.0,40.04166667,-111.80333333,UT
BILLY,1998,"Nezperce National Forest",Lightning,1489.0,46.13333333,-114.95666667,ID
KOPSI,1998,"Kootenai National Forest",Lightning,1060.0,48.885,-114.72833333,MT
DOME,1998,"Kootenai National Forest",Lightning,3340.0,48.38666667,-115.74,MT
"ARCTIC CREEK",1998,"Payette National Forest",Lightning,3760.0,45.51,-115.01805556,ID
"ROCK RABBIT",1998,"Payette National Forest",Lightning,7198.0,45.2625,-115.25388889,ID
